,level_0,Unnamed: 0,index,name,CITY,STABBR,LONGITUD,LATITUDE,early_career_pay,mid_career_pay,make_world_better_percent,stem_percent,state,state_code,type,degree_length,room_and_board,in_state_tuition,in_state_total,out_of_state_tuition,out_of_state_total,"('enrollment', 'American Indian / Alaska Native')","('enrollment', 'Asian')","('enrollment', 'Black')","('enrollment', 'Hispanic')","('enrollment', 'Native Hawaiian / Pacific Islander')","('enrollment', 'Non-Resident Foreign')","('enrollment', 'Total Minority')","('enrollment', 'Two Or More Races')","('enrollment', 'Unknown')","('enrollment', 'White')","('enrollment', 'Women')","('total_enrollment', 'American Indian / Alaska Native')","('total_enrollment', 'Asian')","('total_enrollment', 'Black')","('total_enrollment', 'Hispanic')","('total_enrollment', 'Native Hawaiian / Pacific Islander')","('total_enrollment', 'Non-Resident Foreign')","('total_enrollment', 'Total Minority')","('total_enrollment', 'Two Or More Races')","('total_enrollment', 'Unknown')","('total_enrollment', 'White')","('total_enrollment', 'Women')"
0,0,0,1,University of Alabama at Birmingham,Birmingham,AL,-86.799345,33.505697,48600,87200,57.0,17,Alabama,AL,Public,4 Year,6400.0,10710,17110,24630,31030,46,931,3943,496,14,665,5993,563,200,11840,11288,18698,18698,18698,18698,18698,18698,18698,18698,18698,18698,18698
1,1,1,2,Amridge University,Montgomery,AL,-86.17401,32.362609,35700,65900,,0,Alabama,AL,Private,4 Year,,6900,6900,6900,6900,0,4,255,5,0,0,264,0,180,181,372,625,625,625,625,625,625,625,625,625,625,625
2,3,3,4,Alabama State University,Montgomery,AL,-86.295677,32.364317,39800,71500,61.0,16,Alabama,AL,Public,4 Year,5422.0,11068,16490,19396,24818,8,20,4950,68,3,130,5105,56,76,208,3430,5519,5519,5519,5519,5519,5519,5519,5519,5519,5519,5519
3,5,5,8,Athens State University,Athens,AL,-86.964698,34.806793,45000,78800,51.0,9,Alabama,AL,Public,4 Year,,6810,6810,12870,12870,48,17,396,63,3,17,581,54,107,2423,2046,3128,3128,3128,3128,3128,3128,3128,3128,3128,3128,3128
4,6,6,9,Auburn University at Montgomery,Montgomery,AL,-86.177544,32.36736,45000,79600,61.0,12,Alabama,AL,Public,4 Year,6980.0,10288,17268,22048,29028,23,104,1633,36,9,229,1941,136,315,2572,3233,5057,5057,5057,5057,5057,5057,5057,5057,5057,5057,5057
5,7,7,10,Auburn University,Auburn,AL,-85.488258,32.599378,54400,104500,51.0,31,Alabama,AL,Public,4 Year,13332.0,11276,24608,30524,43856,183,601,1886,599,0,1427,3269,0,361,20855,12798,25912,25912,25912,25912,25912,25912,25912,25912,25912,25912,25912
6,8,8,16,Faulkner University,Montgomery,AL,-86.21641,32.384181,39400,71300,61.0,2,Alabama,AL,Private,4 Year,7750.0,21690,29440,21690,29440,24,19,1505,71,3,49,1674,52,94,1518,2002,3335,3335,3335,3335,3335,3335,3335,3335,3335,3335,3335
7,9,9,23,Huntingdon College,Montgomery,AL,-86.284366,32.351034,42400,78900,69.0,14,Alabama,AL,Private,4 Year,9750.0,27400,37150,27400,37150,14,9,229,29,2,8,313,30,101,738,572,1160,1160,1160,1160,1160,1160,1160,1160,1160,1160,1160
8,10,10,27,Jacksonville State University,Jacksonville,AL,-85.765321,33.822938,43800,80000,61.0,7,Alabama,AL,Public,4 Year,8100.0,10425,18525,20145,28245,61,50,2030,110,7,211,2258,0,256,5934,4978,8659,8659,8659,8659,8659,8659,8659,8659,8659,8659,8659
9,12,12,32,University of West Alabama,Livingston,AL,-88.186329,32.588132,42700,76100,61.0,4,Alabama,AL,Public,4 Year,8116.0,10040,18156,18490,26606,18,6,1769,59,2,141,1893,39,184,1771,2801,3989,3989,3989,3989,3989,3989,3989,3989,3989,3989,3989
10,13,13,35,Miles College,Fairfield,AL,-86.908751,33.482442,34800,65100,64.0,19,Alabama,AL,Private,4 Year,7042.0,11604,18646,11604,18646,0,0,1732,5,1,0,1748,10,4,30,871,1782,1782,1782,1782,1782,1782,1782,1782,1782,1782,1782
11,14,14,36,University of Mobile,Mobile,AL,-88.128934,30.793247,40600,74100,77.0,7,Alabama,AL,Private,4 Year,9600.0,22820,32420,22820,32420,26,10,380,23,0,53,473,34,73,1001,1062,1600,1600,1600,1600,1600,1600,1600,1600,1600,1600,1600
12,15,15,37,University of Montevallo,Montevallo,AL,-86.865099,33.10625,38900,70700,49.0,7,Alabama,AL,Public,4 Year,9330.0,12760,22090,25780,35110,18,19,434,93,0,39,632,68,171,2228,2068,3070,3070,3070,3070,3070,3070,3070,3070,3070,3070,3070
13,16,16,39,University of North Alabama,Florence,AL,-87.681361,34.806738,43000,75600,61.0,6,Alabama,AL,Public,4 Year,9200.0,10370,19570,18680,27880,62,131,869,168,5,301,1383,148,290,4867,3969,6841,6841,6841,6841,6841,6841,6841,6841,6841,6841,6841
14,17,17,41,Oakwood University,Huntsville,AL,-86.652705,34.756344,43500,78800,71.0,16,Alabama,AL,Private,4 Year,9312.0,16720,26032,16720,26032,11,9,1629,47,0,149,1696,0,66,28,1103,1939,1939,1939,1939,1939,1939,1939,1939,1939,1939,1939
15,18,18,44,Samford University,Birmingham,AL,-86.791799,33.464128,48400,90500,52.0,3,Alabama,AL,Private,4 Year,10550.0,31650,42200,31650,42200,17,80,372,218,1,153,738,50,35,4007,3082,4933,4933,4933,4933,4933,4933,4933,4933,4933,4933,4933
16,19,19,48,University of South Alabama,Mobile,AL,-88.178711,30.696033,47700,86400,56.0,17,Alabama,AL,Public,4 Year,7620.0,9870,17490,19740,27360,100,539,3285,402,33,667,4684,325,352,10102,9700,15805,15805,15805,15805,15805,15805,15805,15805,15805,15805,15805
17,20,20,49,Spring Hill College,Mobile,AL,-88.138199,30.694751,46600,89100,53.0,12,Alabama,AL,Private,4 Year,13462.0,39464,52926,39464,52926,10,16,210,77,1,29,359,45,41,947,820,1376,1376,1376,1376,1376,1376,1376,1376,1376,1376,1376
18,21,21,53,Troy University,Troy,AL,-85.957094,31.800672,44500,81500,60.0,8,Alabama,AL,Public,4 Year,8185.0,12460,20645,22875,31060,143,140,6840,666,19,652,8294,486,830,9265,11948,19041,19041,19041,19041,19041,19041,19041,19041,19041,19041,19041
19,22,22,54,Tuskegee University,Tuskegee,AL,-85.708492,32.4309,54500,93500,61.0,30,Alabama,AL,Private,4 Year,9650.0,22170,31820,22170,31820,2,26,2345,32,0,20,2405,0,626,52,1855,3103,3103,3103,3103,3103,3103,3103,3103,3103,3103,3103
20,25,25,61,Alaska Pacific University,Anchorage,AK,-149.804168,61.190968,50300,90000,67.0,6,Alaska,AK,Private,4 Year,7300.0,20830,28130,20830,28130,87,10,13,15,4,0,170,41,88,321,384,579,579,579,579,579,579,579,579,579,579,579
21,26,26,75,University of Arizona,Tucson,AZ,-110.950815,32.232672,56100,101000,51.0,23,Arizona,AZ,Public,4 Year,12550.0,12487,25037,36386,48936,517,2392,1402,9405,95,3696,15419,1608,1071,22050,21891,42236,42236,42236,42236,42236,42236,42236,42236,42236,42236,42236
22,28,28,93,Northern Arizona University,Flagstaff,AZ,-111.653724,35.188449,49600,90000,56.0,12,Arizona,AZ,Public,4 Year,10282.0,11564,21846,25828,36110,838,468,888,5368,62,1246,8961,1337,218,17280,16316,27705,27705,27705,27705,27705,27705,27705,27705,27705,27705,27705
23,30,30,100,Prescott College,Prescott,AZ,-112.477185,34.5452,41200,73500,69.0,0,Arizona,AZ,Private,4 Year,7700.0,31485,39185,31485,39185,22,12,24,21,2,28,120,39,62,638,568,848,848,848,848,848,848,848,848,848,848,848
24,31,31,106,Arizona Christian University,Glendale,AZ,-112.181776,33.622952,42600,76600,,7,Arizona,AZ,Private,4 Year,10674.0,26796,37470,26796,37470,7,18,55,114,5,13,233,34,43,448,331,737,737,737,737,737,737,737,737,737,737,737
25,32,32,110,University of Arkansas at Little Rock,Little Rock,AR,-92.339778,34.723254,45600,80800,55.0,13,Arkansas,AR,Public,4 Year,8930.0,8966,17896,21206,30136,44,260,2625,713,0,480,4465,823,101,6599,6932,11645,11645,11645,11645,11645,11645,11645,11645,11645,11645,11645
26,33,33,111,University of Arkansas for Medical Sciences,Little Rock,AR,-92.322348,34.750152,51700,89100,84.0,3,Arkansas,AR,Public,4 Year,,8197,8197,15973,15973,7,132,260,96,1,66,566,70,91,2167,1882,2890,2890,2890,2890,2890,2890,2890,2890,2890,2890,2890
27,34,34,115,Lyon College,Batesville,AR,-91.625354,35.777619,41200,74300,53.0,33,Arkansas,AR,Private,4 Year,9130.0,28790,37920,28790,37920,10,11,47,44,0,24,112,0,46,530,338,712,712,712,712,712,712,712,712,712,712,712
28,36,36,119,University of Arkansas at Pine Bluff,Pine Bluff,AR,-92.018683,34.244031,40500,70500,67.0,22,Arkansas,AR,Public,4 Year,7881.0,7842,15723,14094,21975,3,15,2295,40,0,34,2355,2,6,118,1359,2513,2513,2513,2513,2513,2513,2513,2513,2513,2513,2513
29,37,37,122,Arkansas Tech University,Russellville,AR,-93.13562,35.293237,45000,76900,54.0,7,Arkansas,AR,Public,4 Year,7870.0,9068,16938,15848,23718,121,154,919,728,8,449,2239,309,0,9314,6689,12002,12002,12002,12002,12002,12002,12002,12002,12002,12002,12002
30,38,38,123,University of Arkansas at Monticello,Monticello,AR,-91.811153,33.590909,43500,78300,61.0,2,Arkansas,AR,Public,4 Year,6824.0,7696,14520,13546,20370,17,23,1051,130,5,17,1298,72,54,2485,2302,3854,3854,3854,3854,3854,3854,3854,3854,3854,3854,3854
31,39,39,127,University of Central Arkansas,Conway,AR,-92.457672,35.077945,44900,79800,52.0,8,Arkansas,AR,Public,4 Year,6854.0,8751,15605,15274,22128,55,185,2011,452,11,575,3066,352,142,7915,7146,11698,11698,11698,11698,11698,11698,11698,11698,11698,11698,11698
32,40,40,128,Central Baptist College,Conway,AR,-92.445021,35.083838,36900,68000,,3,Arkansas,AR,Private,4 Year,7500.0,16200,23700,16200,23700,12,2,175,33,1,25,235,12,2,596,402,858,858,858,858,858,858,858,858,858,858,858
33,41,41,136,Harding University,Searcy,AR,-91.726143,35.247386,49200,88600,47.0,10,Arkansas,AR,Private,4 Year,7044.0,20135,27179,20135,27179,46,86,303,158,1,338,681,87,28,5012,3472,6059,6059,6059,6059,6059,6059,6059,6059,6059,6059,6059
34,42,42,137,Henderson State University,Arkadelphia,AR,-93.059703,34.128155,42900,79800,57.0,5,Arkansas,AR,Public,4 Year,7504.0,8436,15940,10086,17590,7,23,846,147,0,38,1175,152,3,2411,2060,3627,3627,3627,3627,3627,3627,3627,3627,3627,3627,3627
35,43,43,138,Hendrix College,Conway,AR,-92.443256,35.101565,48100,90300,58.0,33,Arkansas,AR,Private,4 Year,12284.0,45790,58074,45790,58074,22,77,65,65,1,76,239,9,6,1037,746,1358,1358,1358,1358,1358,1358,1358,1358,1358,1358,1358
36,44,44,141,John Brown University,Siloam Springs,AR,-94.560283,36.189812,47000,82700,53.0,9,Arkansas,AR,Private,4 Year,9224.0,26928,36152,26928,36152,51,34,108,152,3,108,451,103,110,2181,1654,2850,2850,2850,2850,2850,2850,2850,2850,2850,2850,2850
37,45,45,149,Ouachita Baptist University,Arkadelphia,AR,-93.052471,34.126093,44100,80200,58.0,18,Arkansas,AR,Private,4 Year,7880.0,26790,34670,26790,34670,11,13,129,58,1,37,212,0,1,1251,769,1501,1501,1501,1501,1501,1501,1501,1501,1501,1501,1501
38,46,46,152,University of the Ozarks,Clarksville,AR,-93.467221,35.476278,42300,74500,58.0,16,Arkansas,AR,Private,4 Year,7400.0,24230,31630,24230,31630,4,1,33,86,0,36,146,22,9,396,306,587,587,587,587,587,587,587,587,587,587,587
39,47,47,154,Philander Smith College,Little Rock,AR,-92.283015,34.737131,34600,61200,,26,Arkansas,AR,Private,4 Year,8250.0,12414,20664,12414,20664,1,3,512,2,1,34,530,11,0,3,363,567,567,567,567,567,567,567,567,567,567,567
40,50,50,200,California Institute of Technology,Pasadena,CA,-118.125878,34.137349,84100,151600,53.0,97,California,CA,Private,4 Year,15525.0,52362,67887,52362,67887,4,580,27,173,1,603,853,68,10,743,679,2209,2209,2209,2209,2209,2209,2209,2209,2209,2209,2209
41,61,61,258,Claremont McKenna College,Claremont,CA,-117.711188,34.102154,68500,125400,43.0,16,California,CA,Private,4 Year,16705.0,54405,71110,54405,71110,1,142,54,154,1,225,453,101,87,559,630,1324,1324,1324,1324,1324,1324,1324,1324,1324,1324,1324
42,62,62,315,Harvey Mudd College,Claremont,CA,-117.709837,34.106515,88800,158200,55.0,85,California,CA,Private,4 Year,18127.0,56876,75003,56876,75003,4,167,13,80,0,102,314,50,36,352,373,804,804,804,804,804,804,804,804,804,804,804
43,63,63,356,Loyola Marymount University,Los Angeles,CA,-118.415744,33.97085,58500,113300,39.0,9,California,CA,Private,4 Year,14490.0,48522,63012,48522,63012,18,1054,585,2190,8,677,4471,616,118,4249,5558,9515,9515,9515,9515,9515,9515,9515,9515,9515,9515,9515
44,64,64,365,Menlo College,Atherton,CA,-122.190797,37.453475,61900,112400,59.0,0,California,CA,Private,4 Year,14225.0,42800,57025,42800,57025,6,56,55,166,21,104,359,55,64,267,325,794,794,794,794,794,794,794,794,794,794,794
45,65,65,415,Pomona College,Claremont,CA,-117.714556,34.099027,63800,117200,47.0,37,California,CA,Private,4 Year,16716.0,52780,69496,52780,69496,4,213,109,232,2,154,682,122,112,702,838,1650,1650,1650,1650,1650,1650,1650,1650,1650,1650,1650
46,67,67,437,University of San Diego,San Diego,CA,-117.192073,32.770816,58900,109400,48.0,12,California,CA,Private,4 Year,12980.0,49358,62338,49358,62338,42,641,291,1505,30,611,2917,408,415,4406,4761,8349,8349,8349,8349,8349,8349,8349,8349,8349,8349,8349
47,68,68,441,University of San Francisco,San Francisco,CA,-122.450477,37.776618,60600,109900,52.0,6,California,CA,Private,4 Year,14830.0,48066,62896,48066,62896,26,1881,464,1919,69,1716,4994,635,487,3492,6724,10689,10689,10689,10689,10689,10689,10689,10689,10689,10689,10689
48,69,69,449,San Jose State University,San Jose,CA,-121.880621,37.336569,63000,114700,53.0,28,California,CA,Public,4 Year,16442.0,7796,24238,17300,33742,44,10381,1029,7407,242,3580,20662,1559,1359,7112,16238,32713,32713,32713,32713,32713,32713,32713,32713,32713,32713,32713
49,70,70,455,Santa Clara University,Santa Clara,CA,-121.93784,37.348362,69900,134700,44.0,29,California,CA,Private,4 Year,14910.0,51711,66621,51711,66621,10,1416,238,1283,20,1213,3428,461,683,3691,4511,9015,9015,9015,9015,9015,9015,9015,9015,9015,9015,9015
50,71,71,471,Saint Mary's College of California,Moraga,CA,-122.109031,37.840731,59900,110800,51.0,5,California,CA,Private,4 Year,15370.0,47280,62650,47280,62650,13,414,212,918,24,77,1802,221,416,1817,2499,4112,4112,4112,4112,4112,4112,4112,4112,4112,4112,4112
51,72,72,483,University of Southern California,Los Angeles,CA,-118.284169,34.021281,64500,120600,47.0,23,California,CA,Private,4 Year,15395.0,56225,71620,56225,71620,73,7696,2238,5286,104,9709,16777,1380,2045,13922,22112,42453,42453,42453,42453,42453,42453,42453,42453,42453,42453,42453
52,73,73,516,Adams State University,Alamosa,CO,-105.879642,37.473636,44400,81400,56.0,3,Colorado,CO,Public,4 Year,8782.0,9440,18222,20456,29238,37,37,191,812,10,0,1213,126,165,1776,1728,3154,3154,3154,3154,3154,3154,3154,3154,3154,3154,3154
53,77,77,524,Colorado Christian University,Lakewood,CO,-105.09456,39.71388,46800,80100,70.0,2,Colorado,CO,Private,4 Year,11846.0,31866,43712,31866,43712,36,157,391,623,16,7,1450,227,264,4066,3688,5787,5787,5787,5787,5787,5787,5787,5787,5787,5787,5787
54,78,78,525,Colorado College,Colorado Springs,CO,-104.822697,38.84886,53100,97900,48.0,23,Colorado,CO,Private,4 Year,12512.0,55470,67982,55470,67982,9,94,48,184,0,143,508,173,62,1354,1110,2067,2067,2067,2067,2067,2067,2067,2067,2067,2067,2067
55,79,79,529,Colorado School of Mines,Golden,CO,-105.223364,39.751443,75600,139600,60.0,93,Colorado,CO,Public,4 Year,13169.0,18964,32133,38584,51753,13,231,52,417,3,684,960,244,105,4213,1688,5962,5962,5962,5962,5962,5962,5962,5962,5962,5962,5962
56,81,81,538,University of Denver,Denver,CO,-104.963259,39.678005,55700,105100,48.0,12,Colorado,CO,Private,4 Year,13005.0,50556,63561,50556,63561,52,390,406,1023,14,1262,2213,328,376,7958,6649,11809,11809,11809,11809,11809,11809,11809,11809,11809,11809,11809
57,82,82,540,Fort Lewis College,Durango,CO,-107.867422,37.275939,48300,82600,55.0,19,Colorado,CO,Public,4 Year,9878.0,9040,18918,19696,29574,887,24,31,388,8,53,1565,227,108,2065,1846,3791,3791,3791,3791,3791,3791,3791,3791,3791,3791,3791
58,83,83,545,Colorado Mesa University,Grand Junction,CO,-108.553275,39.080643,47800,81500,55.0,7,Colorado,CO,Public,4 Year,10925.0,9243,20168,22440,33365,68,126,218,1389,55,52,2169,313,306,6589,4924,9116,9116,9116,9116,9116,9116,9116,9116,9116,9116,9116
59,85,85,549,Nazarene Bible College,Colorado Springs,CO,-104.803251,38.944824,33600,60100,,0,Colorado,CO,Private,4 Year,,14700,14700,14700,14700,9,6,48,51,3,0,138,21,0,624,285,762,762,762,762,762,762,762,762,762,762,762
60,86,86,551,University of Northern Colorado,Greeley,CO,-104.692777,40.410855,47700,87100,52.0,7,Colorado,CO,Public,4 Year,11204.0,9786,20990,21474,32678,38,188,437,1772,22,370,2834,377,1657,7189,7908,12050,12050,12050,12050,12050,12050,12050,12050,12050,12050,12050
61,87,87,556,Regis University,Denver,CO,-105.030756,39.788175,55500,94800,58.0,13,Colorado,CO,Private,4 Year,11560.0,36810,48370,36810,48370,57,428,521,1392,21,108,2653,234,793,5654,5834,9208,9208,9208,9208,9208,9208,9208,9208,9208,9208,9208
62,89,89,568,Albertus Magnus College,New Haven,CT,-72.923848,41.332519,49700,85900,62.0,2,Connecticut,CT,Private,4 Year,13200.0,32060,45260,32060,45260,6,7,515,217,2,11,767,20,125,647,1031,1550,1550,1550,1550,1550,1550,1550,1550,1550,1550,1550
63,90,90,571,University of Bridgeport,Bridgeport,CT,-73.190166,41.164741,49900,93600,59.0,31,Connecticut,CT,Private,4 Year,13860.0,32850,46710,32850,46710,27,170,1315,591,11,1251,2205,91,0,1735,3165,5191,5191,5191,5191,5191,5191,5191,5191,5191,5191,5191
64,91,91,572,Central Connecticut State University,New Britain,CT,-72.765991,41.692502,53100,93700,45.0,15,Connecticut,CT,Public,4 Year,12176.0,10616,22792,21856,34032,23,429,1225,1359,11,203,3337,290,338,8159,6035,12037,12037,12037,12037,12037,12037,12037,12037,12037,12037,12037
65,92,92,573,Charter Oak State College,New Britain,CT,-72.767972,41.688246,49200,85900,68.0,2,Connecticut,CT,Public,4 Year,,10161,10161,13101,13101,6,25,323,237,2,12,641,48,161,1115,1300,1929,1929,1929,1929,1929,1929,1929,1929,1929,1929,1929
66,93,93,575,Connecticut College,New London,CT,-72.107321,41.379833,57500,100800,36.0,30,Connecticut,CT,Private,4 Year,15150.0,54820,69970,54820,69970,0,67,62,163,0,102,344,52,91,1363,1174,1900,1900,1900,1900,1900,1900,1900,1900,1900,1900,1900
67,94,94,577,University of Connecticut,Storrs,CT,-72.249948,41.809098,59100,105200,48.0,24,Connecticut,CT,Public,4 Year,12874.0,15730,28604,38098,50972,41,2320,1353,1928,16,2700,6255,597,1986,15600,13359,26541,26541,26541,26541,26541,26541,26541,26541,26541,26541,26541
68,95,95,580,Eastern Connecticut State University,Willimantic,CT,-72.218753,41.721673,49200,87800,43.0,14,Connecticut,CT,Public,4 Year,13560.0,11356,24916,22596,36156,16,151,346,482,6,55,1138,137,428,3666,2798,5287,5287,5287,5287,5287,5287,5287,5287,5287,5287,5287
69,96,96,581,Fairfield University,Fairfield,CT,-73.255903,41.157673,62300,116900,41.0,17,Connecticut,CT,Private,4 Year,14710.0,48350,63060,48350,63060,3,113,137,352,5,340,677,67,529,3577,3081,5123,5123,5123,5123,5123,5123,5123,5123,5123,5123,5123
70,97,97,587,University of Hartford,West Hartford,CT,-72.715213,41.798591,55200,101600,53.0,15,Connecticut,CT,Private,4 Year,12476.0,40694,53170,40694,53170,16,232,865,612,5,484,1876,146,504,3953,3500,6817,6817,6817,6817,6817,6817,6817,6817,6817,6817,6817
71,98,98,597,University of New Haven,West Haven,CT,-72.961472,41.291314,52100,94800,52.0,25,Connecticut,CT,Private,4 Year,15900.0,39270,55170,39270,55170,22,169,602,578,12,1091,1475,92,526,3719,3337,6811,6811,6811,6811,6811,6811,6811,6811,6811,6811,6811
72,99,99,604,Quinnipiac University,Hamden,CT,-72.894117,41.418915,55900,97700,46.0,10,Connecticut,CT,Private,4 Year,14540.0,47960,62500,47960,62500,20,291,463,694,6,201,1614,140,356,6864,5574,9035,9035,9035,9035,9035,9035,9035,9035,9035,9035,9035
73,100,100,605,Sacred Heart University,Fairfield,CT,-73.243332,41.220893,55000,100500,46.0,15,Connecticut,CT,Private,4 Year,15310.0,41420,56730,41420,56730,14,174,361,497,11,354,1146,89,1019,5262,5188,7781,7781,7781,7781,7781,7781,7781,7781,7781,7781,7781
74,101,101,606,University of Saint Joseph,West Hartford,CT,-72.72965,41.781041,49900,88800,63.0,9,Connecticut,CT,Private,4 Year,11428.0,39173,50601,39173,50601,2,116,252,223,3,25,628,32,496,1416,2284,2565,2565,2565,2565,2565,2565,2565,2565,2565,2565,2565
75,102,102,608,Southern Connecticut State University,New Haven,CT,-72.947897,41.333225,48500,83600,51.0,6,Connecticut,CT,Public,4 Year,12860.0,10875,23735,22115,34975,19,271,1539,1114,2,53,3175,230,935,6662,6891,10825,10825,10825,10825,10825,10825,10825,10825,10825,10825,10825
76,106,106,614,Western Connecticut State University,Danbury,CT,-73.444264,41.400365,51700,88100,50.0,6,Connecticut,CT,Public,4 Year,13072.0,10819,23891,22059,35131,13,200,668,900,10,12,1858,67,153,3929,3237,5952,5952,5952,5952,5952,5952,5952,5952,5952,5952,5952
77,107,107,615,Yale University,New Haven,CT,-72.926688,41.311158,70300,138300,53.0,22,Connecticut,CT,Private,4 Year,16000.0,53430,69430,53430,69430,49,1581,675,939,5,2393,3796,547,241,5906,6041,12336,12336,12336,12336,12336,12336,12336,12336,12336,12336,12336
78,108,108,620,Delaware State University,Dover,DE,-75.54053,39.187173,46300,81900,62.0,10,Delaware,DE,Public,4 Year,12190.0,7868,20058,16904,29094,12,47,2916,226,5,216,3366,160,276,539,2760,4397,4397,4397,4397,4397,4397,4397,4397,4397,4397,4397
79,109,109,621,University of Delaware,Newark,DE,-75.752822,39.679577,58600,105400,43.0,22,Delaware,DE,Public,4 Year,12862.0,13680,26542,34310,47172,17,1018,1232,1461,21,2009,4325,576,339,16007,12757,22680,22680,22680,22680,22680,22680,22680,22680,22680,22680,22680
80,110,110,622,Goldey-Beacom College,Wilmington,DE,-75.689624,39.741501,49800,86900,42.0,25,Delaware,DE,Private,4 Year,6400.0,24300,30700,24300,30700,4,55,215,28,0,1279,328,26,10,395,869,2012,2012,2012,2012,2012,2012,2012,2012,2012,2012,2012
81,113,113,640,Barry University,Miami,FL,-80.198925,25.878908,47400,84400,66.0,12,Florida,FL,Private,4 Year,11100.0,29850,40950,29850,40950,28,182,2090,2032,12,570,4431,87,1534,1983,5589,8518,8518,8518,8518,8518,8518,8518,8518,8518,8518,8518
82,115,115,649,University of Central Florida,Orlando,FL,-81.200889,28.602159,49700,88600,50.0,16,Florida,FL,Public,4 Year,9617.0,6368,15985,22467,32084,120,3343,6400,13108,129,1515,24941,1841,1018,33293,33482,60767,60767,60767,60767,60767,60767,60767,60767,60767,60767,60767
83,116,116,655,Eckerd College,Saint Petersburg,FL,-82.687043,27.715798,49200,88400,52.0,25,Florida,FL,Private,4 Year,12588.0,44540,57128,44540,57128,7,35,101,163,4,89,370,60,28,1596,1293,2083,2083,2083,2083,2083,2083,2083,2083,2083,2083,2083
84,119,119,660,Florida Atlantic University,Boca Raton,FL,-80.102978,26.372421,49400,91200,51.0,15,Florida,FL,Public,4 Year,11896.0,6039,17935,21595,33491,57,1318,5678,7255,36,738,15268,924,260,14031,17277,30297,30297,30297,30297,30297,30297,30297,30297,30297,30297,30297
85,120,120,668,Florida Institute of Technology,Melbourne,FL,-80.622893,28.065815,58300,105400,53.0,48,Florida,FL,Private,4 Year,12880.0,41850,54730,41850,54730,28,174,533,359,17,2244,1208,97,535,2406,2110,6393,6393,6393,6393,6393,6393,6393,6393,6393,6393,6393
86,121,121,670,Florida International University,Miami,FL,-80.373928,25.75732,49600,90100,51.0,16,Florida,FL,Public,4 Year,10882.0,6558,17440,18956,29838,42,1434,5977,31211,57,3619,39763,1042,545,5683,27757,49610,49610,49610,49610,49610,49610,49610,49610,49610,49610,49610
87,122,122,676,Florida State University,Tallahassee,FL,-84.291921,30.440756,50800,92700,49.0,18,Florida,FL,Public,4 Year,10816.0,6516,17332,21683,32499,116,1029,3377,6594,59,1875,12238,1063,647,26466,22645,41226,41226,41226,41226,41226,41226,41226,41226,41226,41226,41226
88,123,123,677,University of Florida,Gainesville,FL,-82.347911,29.64629,55800,102800,52.0,29,Florida,FL,Public,4 Year,10120.0,6381,16501,28658,38778,137,3501,3151,8127,240,4295,16264,1108,1583,27317,26820,49459,49459,49459,49459,49459,49459,49459,49459,49459,49459,49459
89,124,124,691,Jacksonville University,Jacksonville,FL,-81.60458,30.353227,50100,90400,66.0,5,Florida,FL,Private,4 Year,14080.0,36670,50750,36670,50750,14,70,607,277,8,132,1089,113,807,2057,2714,4085,4085,4085,4085,4085,4085,4085,4085,4085,4085,4085
90,125,125,709,University of Miami,Coral Gables,FL,-80.278662,25.72126,56200,99600,48.0,22,Florida,FL,Private,4 Year,14108.0,50226,64334,50226,64334,23,953,1169,3526,22,2744,6101,408,1053,6776,8521,16674,16674,16674,16674,16674,16674,16674,16674,16674,16674,16674
91,126,126,713,University of North Florida,Jacksonville,FL,-81.509144,30.27194,48800,86600,51.0,11,Florida,FL,Public,4 Year,9976.0,6394,16370,20112,30088,20,674,1553,1481,12,370,4519,779,64,11031,8977,15984,15984,15984,15984,15984,15984,15984,15984,15984,15984,15984
92,127,127,714,Nova Southeastern University,Fort Lauderdale,FL,-80.24248,26.079337,50200,89800,60.0,9,Florida,FL,Private,4 Year,13250.0,30900,44150,30900,44150,42,1491,5374,6150,13,969,13498,428,1739,7942,16836,24148,24148,24148,24148,24148,24148,24148,24148,24148,24148,24148
93,128,128,728,Rollins College,Winter Park,FL,-81.349239,28.592787,49000,87000,53.0,7,Florida,FL,Private,4 Year,14735.0,49760,64495,49760,64495,9,95,197,487,2,222,881,91,78,2026,1880,3207,3207,3207,3207,3207,3207,3207,3207,3207,3207,3207
94,129,129,742,Stetson University,DeLand,FL,-81.300746,29.035475,47000,86000,44.0,7,Florida,FL,Private,4 Year,13052.0,46030,59082,46030,59082,16,94,288,564,1,211,1087,124,88,2751,2326,4137,4137,4137,4137,4137,4137,4137,4137,4137,4137,4137
95,131,131,765,Agnes Scott College,Decatur,GA,-84.295459,33.769268,46000,83600,57.0,26,Georgia,GA,Private,4 Year,12330.0,41160,53490,41160,53490,1,41,288,78,2,104,462,52,23,284,867,873,873,873,873,873,873,873,873,873,873,873
96,132,132,778,Clark Atlanta University,Atlanta,GA,-84.412584,33.747628,46300,81100,54.0,15,Georgia,GA,Private,4 Year,9524.0,23436,32960,23436,32960,14,14,2930,14,0,127,2972,0,380,6,2573,3485,3485,3485,3485,3485,3485,3485,3485,3485,3485,3485
97,133,133,780,Berry College,Mount Berry,GA,-85.189202,34.290414,44900,84900,44.0,21,Georgia,GA,Private,4 Year,12770.0,36556,49326,36556,49326,2,26,93,134,3,19,320,62,32,1806,1335,2177,2177,2177,2177,2177,2177,2177,2177,2177,2177,2177
98,135,135,789,Columbus State University,Columbus,GA,-84.94106,32.50096,43300,77900,59.0,10,Georgia,GA,Public,4 Year,9880.0,7200,17080,20682,30562,35,176,2921,430,20,115,3764,182,3,4310,4896,8192,8192,8192,8192,8192,8192,8192,8192,8192,8192,8192
99,136,136,791,Covenant College,Lookout Mountain,GA,-85.375066,34.965161,44400,79400,62.0,19,Georgia,GA,Private,4 Year,10260.0,34330,44590,34330,44590,4,22,32,34,2,30,117,23,26,1000,689,1173,1173,1173,1173,1173,1173,1173,1173,1173,1173,1173
100,137,137,797,Emory University,Atlanta,GA,-84.325512,33.790183,62000,110800,44.0,20,Georgia,GA,Private,4 Year,14456.0,51306,65762,51306,65762,26,2281,1474,874,8,2357,5001,338,776,6635,8349,14769,14769,14769,14769,14769,14769,14769,14769,14769,14769,14769
101,140,140,804,Georgia Southern University,Statesboro,GA,-81.784045,32.426153,49000,88000,49.0,17,Georgia,GA,Public,4 Year,10070.0,7422,17492,20904,30974,89,280,5249,1235,22,357,7258,383,386,12516,10716,20517,20517,20517,20517,20517,20517,20517,20517,20517,20517,20517
102,141,141,805,Georgia State University,Atlanta,GA,-84.38667,33.7527,50600,90800,47.0,18,Georgia,GA,Public,4 Year,11378.0,10858,22236,29432,40810,62,3386,11875,2651,27,1506,19336,1335,926,10788,19208,32556,32556,32556,32556,32556,32556,32556,32556,32556,32556,32556
103,142,142,806,University of Georgia,Athens,GA,-83.374039,33.956262,54400,100700,45.0,14,Georgia,GA,Public,4 Year,10038.0,11830,21868,30404,40442,37,2859,2805,1637,37,1739,8427,1052,464,24567,20276,35197,35197,35197,35197,35197,35197,35197,35197,35197,35197,35197
104,143,143,818,Mercer University,Macon,GA,-83.648295,32.831787,48500,85100,62.0,14,Georgia,GA,Private,4 Year,11616.0,36894,48510,36894,48510,45,566,2550,330,12,341,3647,144,444,4120,5302,8552,8552,8552,8552,8552,8552,8552,8552,8552,8552,8552
105,144,144,819,Morehouse College,Atlanta,GA,-84.414917,33.745982,55700,98700,58.0,26,Georgia,GA,Private,4 Year,13438.0,27574,41012,27574,41012,1,1,1988,13,0,66,2007,4,35,1,1,2109,2109,2109,2109,2109,2109,2109,2109,2109,2109,2109
106,145,145,822,Oglethorpe University,Atlanta,GA,-84.333687,33.875441,52400,91400,50.0,12,Georgia,GA,Private,4 Year,13200.0,38100,51300,38100,51300,3,43,202,113,0,66,390,29,270,368,638,1094,1094,1094,1094,1094,1094,1094,1094,1094,1094,1094
107,146,146,828,Savannah College of Art and Design,Savannah,GA,-81.09395,32.072964,46800,80100,34.0,3,Georgia,GA,Private,4 Year,14550.0,36630,51180,36630,51180,61,511,1270,859,27,2199,2744,16,553,5851,7305,11347,11347,11347,11347,11347,11347,11347,11347,11347,11347,11347
108,147,147,830,Shorter University,Rome,GA,-85.196529,34.257543,45600,79900,55.0,6,Georgia,GA,Private,4 Year,9400.0,22370,31770,22370,31770,8,13,356,53,2,60,460,28,68,978,918,1566,1566,1566,1566,1566,1566,1566,1566,1566,1566,1566
109,148,148,833,Spelman College,Atlanta,GA,-84.411527,33.745279,50200,85400,52.0,24,Georgia,GA,Private,4 Year,13865.0,29314,43179,29314,43179,3,2,1855,7,0,32,1925,58,177,1,2135,2135,2135,2135,2135,2135,2135,2135,2135,2135,2135,2135
110,149,149,838,Valdosta State University,Valdosta,GA,-83.289282,30.847402,43400,81000,57.0,7,Georgia,GA,Public,4 Year,8110.0,7476,15586,20958,29068,33,129,3858,485,14,286,4860,341,49,6368,7081,11563,11563,11563,11563,11563,11563,11563,11563,11563,11563,11563
111,150,150,840,University of West Georgia,Carrollton,GA,-85.097762,33.573621,46700,82700,51.0,9,Georgia,GA,Public,4 Year,10918.0,7292,18210,20774,31692,17,131,4286,497,14,175,5303,358,140,6588,7878,12206,12206,12206,12206,12206,12206,12206,12206,12206,12206,12206
112,151,151,842,Chaminade University of Honolulu,Honolulu,HI,-157.807851,21.28995,45400,84000,55.0,3,Hawaii,HI,Private,4 Year,13630.0,25374,39004,25374,39004,24,726,152,162,429,59,1758,265,484,455,1802,2756,2756,2756,2756,2756,2756,2756,2756,2756,2756,2756
113,152,152,843,University of Hawaii at Hilo,Hilo,HI,-155.080847,19.701189,44000,77200,59.0,14,Hawaii,HI,Public,4 Year,11406.0,7720,19126,20680,32086,20,806,46,457,391,166,2849,1129,13,896,2378,3924,3924,3924,3924,3924,3924,3924,3924,3924,3924,3924
114,154,154,846,Hawaii Pacific University,Honolulu,HI,-157.859645,21.310306,52200,93500,56.0,15,Hawaii,HI,Private,4 Year,14800.0,25980,40780,25980,40780,24,921,345,764,128,827,3169,987,138,1693,3302,5827,5827,5827,5827,5827,5827,5827,5827,5827,5827,5827
115,156,156,857,Boise State University,Boise,ID,-116.203301,43.604284,50100,86400,55.0,14,Idaho,ID,Public,4 Year,10692.0,7694,18386,23776,34468,132,436,357,2149,71,816,3842,697,650,16919,12120,22227,22227,22227,22227,22227,22227,22227,22227,22227,22227,22227
116,157,157,859,Idaho State University,Pocatello,ID,-112.432312,42.863832,50800,91800,64.0,12,Idaho,ID,Public,4 Year,7207.0,7420,14627,22940,30147,141,179,156,1122,28,1358,1937,311,494,9640,6964,13429,13429,13429,13429,13429,13429,13429,13429,13429,13429,13429
117,158,158,860,University of Idaho,Moscow,ID,-117.014167,46.727406,52300,97700,54.0,22,Idaho,ID,Public,4 Year,8880.0,7864,16744,25500,34380,113,161,142,925,22,714,1739,376,396,8853,5482,11702,11702,11702,11702,11702,11702,11702,11702,11702,11702,11702
118,160,160,862,Lewis-Clark State College,Lewiston,ID,-117.024875,46.412199,44900,77600,60.0,5,Idaho,ID,Public,4 Year,7580.0,6618,14198,19236,26816,99,39,33,215,13,112,501,102,115,3576,2610,4304,4304,4304,4304,4304,4304,4304,4304,4304,4304,4304
119,161,161,866,Northwest Nazarene University,Nampa,ID,-116.565783,43.562411,46200,80600,68.0,7,Idaho,ID,Private,4 Year,7400.0,29300,36700,29300,36700,14,27,37,175,9,53,306,44,136,1754,1313,2249,2249,2249,2249,2249,2249,2249,2249,2249,2249,2249
120,163,163,882,Bradley University,Peoria,IL,-89.616786,40.696896,55600,104900,46.0,38,Illinois,IL,Private,4 Year,10620.0,33760,44380,33760,44380,10,144,245,282,5,387,755,69,651,3507,2673,5300,5300,5300,5300,5300,5300,5300,5300,5300,5300,5300
121,164,164,895,University of Chicago,Chicago,IL,-87.599539,41.787994,64000,114200,41.0,22,Illinois,IL,Private,4 Year,16350.0,58230,74580,58230,74580,35,1923,634,928,6,3251,3862,336,1544,6440,6341,15097,15097,15097,15097,15097,15097,15097,15097,15097,15097,15097
122,165,165,909,DePaul University,Chicago,IL,-87.62724,41.877618,55700,102900,43.0,15,Illinois,IL,Private,4 Year,14235.0,39975,54210,39975,54210,19,1777,2123,3388,37,1381,8139,795,1408,12871,12650,23799,23799,23799,23799,23799,23799,23799,23799,23799,23799,23799
123,166,166,935,Illinois Wesleyan University,Bloomington,IL,-88.992014,40.489901,53100,96000,44.0,18,Illinois,IL,Private,4 Year,10984.0,47636,58620,47636,58620,5,82,87,128,1,155,346,43,55,1337,1066,1893,1893,1893,1893,1893,1893,1893,1893,1893,1893,1893
124,167,167,939,Illinois Institute of Technology,Chicago,IL,-87.627321,41.8313,64600,118500,47.0,64,Illinois,IL,Private,4 Year,12762.0,47296,60058,47296,60058,12,497,292,600,13,3817,1486,72,600,1995,2809,7898,7898,7898,7898,7898,7898,7898,7898,7898,7898,7898
125,168,168,940,Illinois State University,Normal,IL,-88.990058,40.509403,51200,95000,47.0,10,Illinois,IL,Public,4 Year,9850.0,14516,24366,26040,35890,24,434,1454,1711,18,425,4119,478,103,15968,11549,20615,20615,20615,20615,20615,20615,20615,20615,20615,20615,20615
126,169,169,950,Knox College,Galesburg,IL,-90.373165,40.943064,50600,95400,45.0,24,Illinois,IL,Private,4 Year,9870.0,46554,56424,46554,56424,3,77,110,175,0,179,421,56,56,743,813,1399,1399,1399,1399,1399,1399,1399,1399,1399,1399,1399
127,170,170,953,Lake Forest College,Lake Forest,IL,-87.827454,42.249574,55400,102600,46.0,21,Illinois,IL,Private,4 Year,10390.0,47064,57454,47064,57454,4,81,108,243,0,148,493,57,44,941,934,1626,1626,1626,1626,1626,1626,1626,1626,1626,1626,1626
128,171,171,956,Lakeview College of Nursing,Danville,IL,-87.644379,40.13855,55000,94100,83.0,0,Illinois,IL,Private,4 Year,,16320,16320,16320,16320,2,6,28,5,2,0,47,4,3,267,271,317,317,317,317,317,317,317,317,317,317,317
129,172,172,958,Lewis University,Romeoville,IL,-88.079032,41.605432,49700,89800,53.0,14,Illinois,IL,Private,4 Year,10578.0,32450,43028,32450,43028,8,204,610,1043,14,93,2028,149,267,4301,4009,6689,6689,6689,6689,6689,6689,6689,6689,6689,6689,6689
130,173,173,963,Loyola University Chicago,Chicago,IL,-87.656872,42.000765,53400,96000,45.0,15,Illinois,IL,Private,4 Year,14480.0,44048,58528,44048,58528,15,1449,920,1793,33,826,4931,721,439,9706,10215,15902,15902,15902,15902,15902,15902,15902,15902,15902,15902,15902
131,175,175,982,North Central College,Naperville,IL,-88.14279,41.77576,50400,92900,45.0,9,Illinois,IL,Private,4 Year,11019.0,38880,49899,38880,49899,3,66,118,276,2,56,544,79,217,2226,1676,3043,3043,3043,3043,3043,3043,3043,3043,3043,3043,3043
132,176,176,985,Northern Illinois University,Dekalb,IL,-88.766428,41.933869,53000,95500,47.0,20,Illinois,IL,Public,4 Year,10880.0,12262,23142,12262,23142,30,984,2825,2531,22,1090,6961,569,242,12318,10442,20611,20611,20611,20611,20611,20611,20611,20611,20611,20611,20611
133,177,177,986,Northwestern University,Evanston,IL,-87.679858,42.050356,63400,115400,46.0,20,Illinois,IL,Private,4 Year,16626.0,54567,71193,54567,71193,22,2865,1058,1662,12,3337,6321,702,1502,10394,10109,21554,21554,21554,21554,21554,21554,21554,21554,21554,21554,21554
134,179,179,1002,Rush University,Chicago,IL,-87.668581,41.874742,63500,107600,88.0,6,Illinois,IL,Private,4 Year,,24900,24900,24900,24900,6,337,159,196,3,0,730,29,82,1645,1797,2457,2457,2457,2457,2457,2457,2457,2457,2457,2457,2457
135,182,182,1006,Saint Xavier University,Chicago,IL,-87.714749,41.707199,49400,91200,60.0,10,Illinois,IL,Private,4 Year,11340.0,33880,45220,33880,45220,12,112,668,920,2,13,1785,71,202,2073,2803,4073,4073,4073,4073,4073,4073,4073,4073,4073,4073,4073
136,185,185,1038,Ball State University,Muncie,IN,-85.409043,40.203431,45600,83700,48.0,7,Indiana,IN,Public,4 Year,10234.0,9896,20130,26468,36702,26,215,1378,692,24,793,2746,411,849,16267,12538,20655,20655,20655,20655,20655,20655,20655,20655,20655,20655,20655
137,186,186,1040,Butler University,Indianapolis,IN,-86.172167,39.8374,51800,99300,53.0,9,Indiana,IN,Private,4 Year,13830.0,41120,54950,41120,54950,8,119,182,146,0,139,546,91,157,4006,2877,4848,4848,4848,4848,4848,4848,4848,4848,4848,4848,4848
138,187,187,1046,DePauw University,Greencastle,IN,-86.860363,39.640904,56600,101000,47.0,24,Indiana,IN,Private,4 Year,13020.0,49704,62724,49704,62724,6,75,126,76,0,208,427,144,63,1517,1201,2215,2215,2215,2215,2215,2215,2215,2215,2215,2215,2215
139,189,189,1049,University of Evansville,Evansville,IN,-87.531644,37.971549,50300,89900,54.0,17,Indiana,IN,Private,4 Year,12460.0,36416,48876,36416,48876,4,38,72,71,0,325,234,49,84,1924,1446,2567,2567,2567,2567,2567,2567,2567,2567,2567,2567,2567
140,191,191,1053,Hanover College,Hanover,IN,-85.460051,38.715642,47500,85100,53.0,24,Indiana,IN,Private,4 Year,11580.0,37670,49250,37670,49250,7,16,55,26,0,63,125,21,29,928,663,1145,1145,1145,1145,1145,1145,1145,1145,1145,1145,1145
141,192,192,1055,Holy Cross College,Notre Dame,IN,-86.253822,41.698996,48100,87800,,0,Indiana,IN,Private,4 Year,11500.0,30820,42320,30820,42320,2,8,49,56,1,30,134,18,5,351,180,520,520,520,520,520,520,520,520,520,520,520
142,194,194,1061,University of Indianapolis,Indianapolis,IN,-86.133969,39.709571,47300,84500,55.0,5,Indiana,IN,Private,4 Year,10288.0,29688,39976,29688,39976,8,85,456,191,8,424,875,127,407,3736,3661,5442,5442,5442,5442,5442,5442,5442,5442,5442,5442,5442
143,196,196,1064,Indiana State University,Terre Haute,IN,-87.407846,39.469073,47900,85600,55.0,8,Indiana,IN,Public,4 Year,10590.0,9090,19680,19836,30426,36,179,2199,395,8,998,3191,374,251,8743,7260,13183,13183,13183,13183,13183,13183,13183,13183,13183,13183,13183
144,198,198,1076,Manchester University,North Manchester,IN,-85.762643,41.010549,46900,84700,56.0,10,Indiana,IN,Private,4 Year,9580.0,32758,42338,32758,42338,2,61,86,67,0,28,259,43,15,1186,794,1488,1488,1488,1488,1488,1488,1488,1488,1488,1488,1488
145,199,199,1083,University of Notre Dame,Notre Dame,IN,-86.238959,41.703058,67000,130500,45.0,28,Indiana,IN,Private,4 Year,15410.0,53391,68801,53391,68801,21,573,376,1139,5,1191,2560,446,637,7791,5547,12179,12179,12179,12179,12179,12179,12179,12179,12179,12179,12179
146,200,200,1088,Rose-Hulman Institute of Technology,Terre Haute,IN,-87.326749,39.483602,75000,135800,51.0,96,Indiana,IN,Private,4 Year,14766.0,49871,64637,49871,64637,3,82,57,68,2,289,302,90,77,1720,537,2388,2388,2388,2388,2388,2388,2388,2388,2388,2388,2388
147,203,203,1094,Taylor University,Upland,IN,-85.497034,40.456246,48700,90600,59.0,16,Indiana,IN,Private,4 Year,9614.0,34114,43728,34114,43728,6,63,55,63,7,101,209,15,0,1836,1211,2146,2146,2146,2146,2146,2146,2146,2146,2146,2146,2146
148,204,204,1095,Trine University,Angola,IN,-85.008009,41.632502,55100,100300,56.0,26,Indiana,IN,Private,4 Year,10810.0,32175,42985,32175,42985,12,48,86,148,4,151,372,74,195,2113,1193,2831,2831,2831,2831,2831,2831,2831,2831,2831,2831,2831
149,205,205,1096,Valparaiso University,Valparaiso,IN,-87.040172,41.462239,53300,98000,52.0,31,Indiana,IN,Private,4 Year,11860.0,40260,52120,40260,52120,15,87,283,329,1,618,806,91,153,2930,2314,4507,4507,4507,4507,4507,4507,4507,4507,4507,4507,4507
150,206,206,1099,Wabash College,Crawfordsville,IN,-86.906,40.037588,62200,114400,40.0,34,Indiana,IN,Private,4 Year,10050.0,43450,53500,43450,53500,5,12,55,59,1,66,159,27,10,691,0,926,926,926,926,926,926,926,926,926,926,926
151,207,207,1100,Allen College,Waterloo,IA,-92.340148,42.530084,51600,91300,,0,Iowa,IA,Private,4 Year,7282.0,19970,27252,19970,27252,0,7,13,2,2,4,29,5,24,518,524,575,575,575,575,575,575,575,575,575,575,575
152,208,208,1105,Central College,Pella,IA,-92.922199,41.401539,49000,88800,55.0,36,Iowa,IA,Private,4 Year,10280.0,37295,47575,37295,47575,5,15,26,44,2,18,106,14,43,1244,736,1411,1411,1411,1411,1411,1411,1411,1411,1411,1411,1411
153,209,209,1106,Clarke University,Dubuque,IA,-90.690487,42.509475,44900,80200,52.0,6,Iowa,IA,Private,4 Year,9600.0,33350,42950,33350,42950,1,9,33,44,0,13,103,16,25,1059,836,1200,1200,1200,1200,1200,1200,1200,1200,1200,1200,1200
154,210,210,1107,Coe College,Cedar Rapids,IA,-91.658192,41.988263,47200,86900,41.0,24,Iowa,IA,Private,4 Year,9480.0,45000,54480,45000,54480,3,33,71,109,1,64,262,45,61,1049,805,1436,1436,1436,1436,1436,1436,1436,1436,1436,1436,1436
155,211,211,1108,Cornell College,Mount Vernon,IA,-91.423741,41.924554,49600,90600,47.0,22,Iowa,IA,Private,4 Year,9384.0,42299,51683,42299,51683,4,26,55,140,3,48,274,46,44,720,577,1086,1086,1086,1086,1086,1086,1086,1086,1086,1086,1086
156,212,212,1112,Drake University,Des Moines,IA,-93.652163,41.60129,52800,99900,49.0,7,Iowa,IA,Private,4 Year,10528.0,41396,51924,41396,51924,10,200,160,163,1,281,613,79,58,4110,2974,5062,5062,5062,5062,5062,5062,5062,5062,5062,5062,5062
157,213,213,1113,University of Dubuque,Dubuque,IA,-90.693428,42.49726,44200,79700,48.0,7,Iowa,IA,Private,4 Year,9930.0,34110,44040,34110,44040,11,41,226,142,4,59,484,60,170,1408,931,2121,2121,2121,2121,2121,2121,2121,2121,2121,2121,2121
158,215,215,1120,Grinnell College,Grinnell,IA,-92.722094,41.747952,53400,96500,49.0,41,Iowa,IA,Private,4 Year,12810.0,52392,65202,52392,65202,3,128,100,134,0,228,439,74,63,1004,947,1734,1734,1734,1734,1734,1734,1734,1734,1734,1734,1734
159,216,216,1129,Iowa State University,Ames,IA,-93.648504,42.026212,56100,101300,48.0,31,Iowa,IA,Public,4 Year,8720.0,8988,17708,23392,32112,80,940,891,1451,31,3980,4065,672,1547,24843,15145,34435,34435,34435,34435,34435,34435,34435,34435,34435,34435,34435
160,218,218,1132,University of Iowa,Iowa City,IA,-91.536425,41.661935,54100,99400,48.0,16,Iowa,IA,Public,4 Year,11172.0,9267,20439,31233,42405,50,1056,853,1730,26,3713,4345,630,1794,20118,15461,29970,29970,29970,29970,29970,29970,29970,29970,29970,29970,29970
161,219,219,1138,Loras College,Dubuque,IA,-90.679023,42.503908,48000,90100,56.0,14,Iowa,IA,Private,4 Year,8275.0,34184,42459,34184,42459,1,13,39,89,2,28,166,22,70,1305,752,1569,1569,1569,1569,1569,1569,1569,1569,1569,1569,1569
162,220,220,1139,Luther College,Decorah,IA,-91.802809,43.312304,48200,85900,49.0,21,Iowa,IA,Private,4 Year,9460.0,42290,51750,42290,51750,8,39,34,80,0,146,210,49,15,2014,1340,2385,2385,2385,2385,2385,2385,2385,2385,2385,2385,2385
163,221,221,1144,Mount Mercy University,Cedar Rapids,IA,-91.650991,42.001931,47200,79000,51.0,4,Iowa,IA,Private,4 Year,9534.0,31798,41332,31798,41332,6,25,74,24,2,50,156,25,90,1466,1246,1762,1762,1762,1762,1762,1762,1762,1762,1762,1762,1762
164,222,222,1147,University of Northern Iowa,Cedar Falls,IA,-92.459703,42.514923,47100,85300,46.0,8,Iowa,IA,Public,4 Year,8948.0,8938,17886,19480,28428,25,108,339,377,7,626,1066,210,269,9967,6945,11928,11928,11928,11928,11928,11928,11928,11928,11928,11928,11928
165,227,227,1167,Wartburg College,Waverly,IA,-92.483387,42.7277,49300,88000,49.0,34,Iowa,IA,Private,4 Year,9996.0,41280,51276,41280,51276,1,20,80,42,1,162,180,36,29,1290,870,1661,1661,1661,1661,1661,1661,1661,1661,1661,1661,1661
166,228,228,1171,William Penn University,Oskaloosa,IA,-92.647095,41.310111,43900,78300,59.0,7,Iowa,IA,Private,4 Year,6952.0,25600,32552,25600,32552,10,24,290,135,6,61,494,29,57,1179,894,1791,1791,1791,1791,1791,1791,1791,1791,1791,1791,1791
167,229,229,1173,Baker University,Baldwin City,KS,-95.187346,38.778712,47800,84200,55.0,2,Kansas,KS,Private,4 Year,8410.0,29830,38240,29830,38240,54,43,281,147,11,24,575,39,164,2194,1729,2957,2957,2957,2957,2957,2957,2957,2957,2957,2957,2957
168,230,230,1175,Benedictine College,Atchison,KS,-95.111473,39.572646,48700,91800,69.0,13,Kansas,KS,Private,4 Year,10300.0,29530,39830,29530,39830,8,26,70,112,7,68,318,95,62,1690,1124,2138,2138,2138,2138,2138,2138,2138,2138,2138,2138,2138
169,232,232,1179,Central Christian College of Kansas,McPherson,KS,-97.668597,38.357978,37100,66100,,2,Kansas,KS,Private,4 Year,8286.0,26674,34960,26674,34960,19,11,210,107,5,8,369,17,252,536,576,1165,1165,1165,1165,1165,1165,1165,1165,1165,1165,1165
170,233,233,1186,Emporia State University,Emporia,KS,-96.179021,38.414784,43500,78000,60.0,9,Kansas,KS,Public,4 Year,8912.0,6758,15670,20675,29587,29,52,272,339,7,551,985,286,163,4415,3838,6114,6114,6114,6114,6114,6114,6114,6114,6114,6114,6114
171,234,234,1188,Fort Hays State University,Hays,KS,-99.342503,38.872156,45100,79300,64.0,6,Kansas,KS,Public,4 Year,8300.0,5133,13433,15201,23501,56,130,514,877,15,3562,1873,281,200,8190,8367,13825,13825,13825,13825,13825,13825,13825,13825,13825,13825,13825
172,235,235,1190,Friends University,Wichita,KS,-97.367048,37.678459,44700,76500,59.0,14,Kansas,KS,Private,4 Year,7972.0,28415,36387,28415,36387,25,51,204,68,7,0,473,118,106,1303,1084,1882,1882,1882,1882,1882,1882,1882,1882,1882,1882,1882
173,236,236,1203,University of Kansas,Lawrence,KS,-95.247567,38.958549,53000,98600,52.0,16,Kansas,KS,Public,4 Year,10350.0,11148,21498,27358,37708,142,1081,1133,1554,22,2436,5028,1096,579,19137,13950,27180,27180,27180,27180,27180,27180,27180,27180,27180,27180,27180
174,237,237,1204,Newman University,Wichita,KS,-97.37768,37.672643,48000,88500,66.0,11,Kansas,KS,Private,4 Year,8326.0,30724,39050,30724,39050,45,180,140,362,7,84,827,93,37,2739,2406,3687,3687,3687,3687,3687,3687,3687,3687,3687,3687,3687
175,238,238,1206,Kansas State University,Manhattan,KS,-96.581077,39.188648,52500,97200,51.0,18,Kansas,KS,Public,4 Year,9680.0,10263,19943,25767,35447,94,381,954,1419,36,2247,3579,695,391,18549,12216,24766,24766,24766,24766,24766,24766,24766,24766,24766,24766,24766
176,239,239,1207,Kansas Wesleyan University,Salina,KS,-97.607973,38.813795,44700,79400,61.0,10,Kansas,KS,Private,4 Year,9500.0,29500,39000,29500,39000,4,8,43,89,2,25,160,14,10,515,384,710,710,710,710,710,710,710,710,710,710,710
177,240,240,1211,Manhattan Christian College,Manhattan,KS,-96.579383,39.184806,39400,72200,,0,Kansas,KS,Private,4 Year,9092.0,15850,24942,15850,24942,5,1,8,9,0,15,26,3,34,236,147,311,311,311,311,311,311,311,311,311,311,311
178,241,241,1212,McPherson College,McPherson,KS,-97.642996,38.371422,44500,80900,59.0,9,Kansas,KS,Private,4 Year,8788.0,28951,37739,28951,37739,2,4,82,74,4,16,184,18,3,456,264,659,659,659,659,659,659,659,659,659,659,659
179,242,242,1213,MidAmerica Nazarene University,Olathe,KS,-94.781635,38.875615,46200,78500,60.0,1,Kansas,KS,Private,4 Year,8708.0,30736,39444,30736,39444,13,28,203,104,11,2,382,23,272,1214,1197,1870,1870,1870,1870,1870,1870,1870,1870,1870,1870,1870
180,245,245,1219,Pittsburg State University,Pittsburg,KS,-94.702473,37.392071,47100,84900,51.0,8,Kansas,KS,Public,4 Year,7778.0,7298,15076,18642,26420,104,56,273,312,10,548,1088,333,31,5812,3787,7479,7479,7479,7479,7479,7479,7479,7479,7479,7479,7479
181,248,248,1226,Tabor College,Hillsboro,KS,-97.200949,38.348606,43300,77500,62.0,7,Kansas,KS,Private,4 Year,9850.0,28245,38095,28245,38095,3,5,64,83,2,12,182,25,48,524,379,766,766,766,766,766,766,766,766,766,766,766
182,249,249,1227,Washburn University,Topeka,KS,-95.702222,39.033778,47000,83000,54.0,4,Kansas,KS,Public,4 Year,8237.0,8870,17107,19940,28177,39,76,327,465,6,244,1133,220,1138,4207,3957,6722,6722,6722,6722,6722,6722,6722,6722,6722,6722,6722
183,250,250,1229,Wichita State University,Wichita,KS,-97.292361,37.718882,48700,87300,57.0,24,Kansas,KS,Public,4 Year,11252.0,8271,19523,17452,28704,118,940,829,1289,14,1763,3625,435,573,9034,7752,14995,14995,14995,14995,14995,14995,14995,14995,14995,14995,14995
184,251,251,1232,Asbury University,Wilmore,KY,-84.662606,37.862029,39400,70800,59.0,4,Kentucky,KY,Private,4 Year,7160.0,30198,37358,30198,37358,4,14,92,40,5,30,254,99,86,1509,1142,1879,1879,1879,1879,1879,1879,1879,1879,1879,1879,1879
185,252,252,1236,Bellarmine University,Louisville,KY,-85.704997,38.219279,49000,90700,54.0,11,Kentucky,KY,Private,4 Year,12250.0,42200,54450,42200,54450,9,65,196,101,5,48,473,97,124,2964,2430,3609,3609,3609,3609,3609,3609,3609,3609,3609,3609,3609
186,253,253,1237,Berea College,Berea,KY,-84.292893,37.57202,39500,71600,53.0,27,Kentucky,KY,Private,4 Year,6764.0,39990,46754,39990,46754,2,26,242,95,3,125,456,88,30,1010,909,1621,1621,1621,1621,1621,1621,1621,1621,1621,1621,1621
187,254,254,1240,Brescia University,Owensboro,KY,-87.111639,37.769041,44300,81200,53.0,7,Kentucky,KY,Private,4 Year,9200.0,22400,31600,22400,31600,9,3,133,63,2,10,210,0,132,704,771,1056,1056,1056,1056,1056,1056,1056,1056,1056,1056,1056
188,255,255,1241,Campbellsville University,Campbellsville,KY,-85.348943,37.343342,37600,66800,50.0,7,Kentucky,KY,Private,4 Year,8000.0,25400,33400,25400,33400,6,17,375,56,4,226,499,41,54,2648,1986,3427,3427,3427,3427,3427,3427,3427,3427,3427,3427,3427
189,256,256,1243,Centre College,Danville,KY,-84.779392,37.645709,49500,88500,52.0,22,Kentucky,KY,Private,4 Year,10480.0,41700,52180,41700,52180,0,46,64,32,2,86,186,42,6,1109,718,1387,1387,1387,1387,1387,1387,1387,1387,1387,1387,1387
190,257,257,1247,University of the Cumberlands,Williamsburg,KY,-84.161646,36.737048,39800,73800,63.0,8,Kentucky,KY,Private,4 Year,9000.0,23000,32000,23000,32000,18,30,310,95,2,112,474,19,662,4488,3667,5736,5736,5736,5736,5736,5736,5736,5736,5736,5736,5736
191,258,258,1248,Eastern Kentucky University,Richmond,KY,-84.300796,37.740845,45600,80700,56.0,5,Kentucky,KY,Public,4 Year,9018.0,9296,18314,19074,28092,49,142,967,333,19,297,1867,357,596,13545,9373,16305,16305,16305,16305,16305,16305,16305,16305,16305,16305,16305
192,259,259,1251,Georgetown College,Georgetown,KY,-84.553767,38.207615,45000,81900,54.0,10,Kentucky,KY,Private,4 Year,9780.0,38650,48430,38650,48430,3,11,105,38,0,18,191,34,27,1026,752,1262,1262,1262,1262,1262,1262,1262,1262,1262,1262,1262
193,260,260,1261,Kentucky State University,Frankfort,KY,-84.855402,38.201427,40700,73100,57.0,13,Kentucky,KY,Public,4 Year,6690.0,8090,14780,19390,26080,3,10,1007,33,4,24,1097,40,223,551,1148,1895,1895,1895,1895,1895,1895,1895,1895,1895,1895,1895
194,261,261,1262,Kentucky Wesleyan College,Owensboro,KY,-87.119658,37.744489,42100,76800,65.0,14,Kentucky,KY,Private,4 Year,9764.0,26440,36204,26440,36204,1,3,102,12,0,5,118,0,103,483,326,709,709,709,709,709,709,709,709,709,709,709
195,262,262,1263,University of Kentucky,Lexington,KY,-84.504747,38.038911,51700,96400,48.0,19,Kentucky,KY,Public,4 Year,12982.0,12245,25227,29099,42081,55,807,1989,1031,26,1751,4678,770,997,21777,15420,29203,29203,29203,29203,29203,29203,29203,29203,29203,29203,29203
196,263,263,1264,Kentucky Christian University,Grayson,KY,-82.945561,38.338805,39600,70300,68.0,3,Kentucky,KY,Private,4 Year,8270.0,19820,28090,19820,28090,2,4,56,8,0,13,77,7,128,440,302,658,658,658,658,658,658,658,658,658,658,658
197,264,264,1266,Lindsey Wilson College,Columbia,KY,-85.299997,37.101502,35300,64100,52.0,2,Kentucky,KY,Private,4 Year,9385.0,24850,34235,24850,34235,12,17,253,26,1,4,342,33,531,1764,1620,2641,2641,2641,2641,2641,2641,2641,2641,2641,2641,2641
198,265,265,1267,University of Louisville,Louisville,KY,-85.760412,38.216862,49500,87600,50.0,18,Kentucky,KY,Public,4 Year,9226.0,11656,20882,27278,36504,34,749,2247,813,14,617,4641,784,60,16243,11118,21561,21561,21561,21561,21561,21561,21561,21561,21561,21561,21561
199,267,267,1272,Morehead State University,Morehead,KY,-83.434021,38.186768,41300,74900,56.0,9,Kentucky,KY,Public,4 Year,9960.0,9170,19130,13646,23606,20,41,409,162,12,141,786,142,155,9970,6694,11052,11052,11052,11052,11052,11052,11052,11052,11052,11052,11052
200,268,268,1273,Murray State University,Murray,KY,-88.323629,36.612419,44800,79900,56.0,9,Kentucky,KY,Public,4 Year,9190.0,9084,18274,24540,33730,22,99,776,196,6,825,1270,171,175,8937,6571,11207,11207,11207,11207,11207,11207,11207,11207,11207,11207,11207
201,269,269,1275,Northern Kentucky University,Highland Heights,KY,-84.463483,39.029714,49000,87400,46.0,12,Kentucky,KY,Public,4 Year,10022.0,10032,20054,19680,29702,55,166,996,379,17,469,1865,252,205,12551,8452,15090,15090,15090,15090,15090,15090,15090,15090,15090,15090,15090
202,270,270,1277,University of Pikeville,Pikeville,KY,-82.521063,37.479232,39000,70700,74.0,11,Kentucky,KY,Private,4 Year,7800.0,20950,28750,20950,28750,11,25,167,45,2,42,250,0,0,2166,1263,2458,2458,2458,2458,2458,2458,2458,2458,2458,2458,2458
203,271,271,1286,Spalding University,Louisville,KY,-85.757725,38.242407,44800,79200,71.0,0,Kentucky,KY,Private,4 Year,7600.0,24500,32100,24500,32100,3,32,425,66,5,8,588,57,267,1448,1698,2311,2311,2311,2311,2311,2311,2311,2311,2311,2311,2311
204,272,272,1289,Transylvania University,Lexington,KY,-84.493202,38.052983,47900,85600,51.0,25,Kentucky,KY,Private,4 Year,10460.0,38750,49210,38750,49210,1,20,31,46,1,36,129,30,35,814,592,1014,1014,1014,1014,1014,1014,1014,1014,1014,1014,1014
205,273,273,1292,Western Kentucky University,Bowling Green,KY,-86.456828,36.985035,45500,83100,49.0,10,Kentucky,KY,Public,4 Year,8343.0,10602,18945,26496,34839,46,210,1938,515,18,1434,3171,444,252,15314,11710,20171,20171,20171,20171,20171,20171,20171,20171,20171,20171,20171
206,274,274,1298,Centenary College of Louisiana,Shreveport,LA,-93.730834,32.483335,47000,88400,37.0,26,Louisiana,LA,Private,4 Year,13400.0,36580,49980,36580,49980,6,21,88,35,1,11,173,22,0,435,350,619,619,619,619,619,619,619,619,619,619,619
207,275,275,1304,Dillard University,New Orleans,LA,-90.06464,29.996587,44700,79800,74.0,20,Louisiana,LA,Private,4 Year,10100.0,18099,28199,18099,28199,0,0,1108,6,0,26,1123,9,47,4,871,1200,1200,1200,1200,1200,1200,1200,1200,1200,1200,1200
208,276,276,1306,Grambling State University,Grambling,LA,-92.713245,32.523797,43100,73100,66.0,10,Louisiana,LA,Public,4 Year,7192.0,7435,14627,16458,23650,13,10,4088,41,2,162,4210,56,32,100,2802,4504,4504,4504,4504,4504,4504,4504,4504,4504,4504,4504
209,280,280,1318,Louisiana College,Pineville,LA,-92.425973,31.324528,44800,79800,58.0,4,Louisiana,LA,Private,4 Year,5618.0,17000,22618,17000,22618,10,12,280,40,1,70,355,12,51,780,669,1256,1256,1256,1256,1256,1256,1256,1256,1256,1256,1256
210,281,281,1320,Louisiana Tech University,Ruston,LA,-92.649963,32.528297,53100,100700,57.0,24,Louisiana,LA,Public,4 Year,6495.0,9645,16140,18558,25053,43,131,1441,123,16,573,1944,190,940,7768,5481,11225,11225,11225,11225,11225,11225,11225,11225,11225,11225,11225
211,282,282,1321,Loyola University New Orleans,New Orleans,LA,-90.120417,29.936141,47900,88600,47.0,4,Louisiana,LA,Private,4 Year,13380.0,39692,53072,39692,53072,32,143,655,541,3,139,1507,133,310,2374,2695,4330,4330,4330,4330,4330,4330,4330,4330,4330,4330,4330
212,283,283,1322,McNeese State University,Lake Charles,LA,-93.217222,30.178187,50200,88200,57.0,13,Louisiana,LA,Public,4 Year,8704.0,7859,16563,18934,27638,53,121,1421,211,6,361,1984,172,6,5886,5120,8237,8237,8237,8237,8237,8237,8237,8237,8237,8237,8237
213,284,284,1323,University of New Orleans,New Orleans,LA,-90.067142,30.027704,49900,91600,55.0,23,Louisiana,LA,Public,4 Year,10575.0,9054,19629,13890,24465,33,656,1375,840,3,614,3196,289,255,5169,4749,9234,9234,9234,9234,9234,9234,9234,9234,9234,9234,9234
214,286,286,1325,Nicholls State University,Thibodaux,LA,-90.801571,29.794486,44500,84300,53.0,5,Louisiana,LA,Public,4 Year,9938.0,7982,17920,9075,19013,117,70,1242,197,4,144,1806,176,120,4222,3971,6292,6292,6292,6292,6292,6292,6292,6292,6292,6292,6292
215,287,287,1326,University of Louisiana at Monroe,Monroe,LA,-92.07374,32.527748,48500,92500,65.0,7,Louisiana,LA,Public,4 Year,7850.0,8734,16584,20834,28684,29,197,1936,176,4,265,2518,176,210,5524,5446,8517,8517,8517,8517,8517,8517,8517,8517,8517,8517,8517
216,291,291,1342,Southeastern Louisiana University,Hammond,LA,-90.468676,30.514652,46700,83900,51.0,8,Louisiana,LA,Public,4 Year,8420.0,8165,16585,20643,29063,35,128,2148,893,14,241,3975,757,833,9438,9006,14487,14487,14487,14487,14487,14487,14487,14487,14487,14487,14487
217,292,292,1344,Southern University at New Orleans,New Orleans,LA,-90.044912,30.026162,40100,71000,76.0,13,Louisiana,LA,Public,4 Year,9040.0,9371,18411,11160,20200,3,10,1771,13,0,0,1797,0,256,50,1603,2103,2103,2103,2103,2103,2103,2103,2103,2103,2103,2103
218,293,293,1346,University of Louisiana at Lafayette,Lafayette,LA,-92.020165,30.212191,48200,92500,52.0,19,Louisiana,LA,Public,4 Year,8516.0,10616,19132,24344,32860,80,373,3377,547,15,673,4669,277,187,11666,9601,17195,17195,17195,17195,17195,17195,17195,17195,17195,17195,17195
219,295,295,1349,Xavier University of Louisiana,New Orleans,LA,-90.107307,29.964162,46700,88200,63.0,35,Louisiana,LA,Private,4 Year,9047.0,24488,33535,24488,33535,4,384,2088,77,0,96,2631,78,38,211,2159,2976,2976,2976,2976,2976,2976,2976,2976,2976,2976,2976
220,296,296,1351,Bates College,Lewiston,ME,-70.203333,44.105299,59500,111900,50.0,23,Maine,ME,Private,4 Year,15224.0,53794,69018,53794,69018,4,82,85,120,0,122,363,72,14,1274,894,1773,1773,1773,1773,1773,1773,1773,1773,1773,1773,1773
221,297,297,1353,Bowdoin College,Brunswick,ME,-69.963942,43.907134,61300,112000,54.0,37,Maine,ME,Private,4 Year,14698.0,53922,68620,53922,68620,2,114,88,229,0,98,550,117,10,1147,903,1805,1805,1805,1805,1805,1805,1805,1805,1805,1805,1805
222,298,298,1356,Colby College,Waterville,ME,-69.66337,44.564211,59200,103300,50.0,25,Maine,ME,Private,4 Year,14190.0,55210,69400,55210,69400,3,103,56,113,0,196,373,98,168,1110,978,1847,1847,1847,1847,1847,1847,1847,1847,1847,1847,1847
223,299,299,1360,University of Maine at Augusta,Augusta,ME,-69.796396,44.337746,41600,73100,61.0,7,Maine,ME,Public,4 Year,,7988,7988,17918,17918,86,22,46,69,4,22,325,98,565,3752,3365,4664,4664,4664,4664,4664,4664,4664,4664,4664,4664,4664
224,300,300,1361,University of Maine at Farmington,Farmington,ME,-70.147121,44.666911,41100,71700,64.0,5,Maine,ME,Public,4 Year,9726.0,9666,19392,19778,29504,13,14,35,26,2,14,130,40,171,1645,1311,1960,1960,1960,1960,1960,1960,1960,1960,1960,1960,1960
225,301,301,1362,University of Maine at Fort Kent,Fort Kent,ME,-68.589319,47.250389,43500,76300,73.0,5,Maine,ME,Public,4 Year,8220.0,8115,16335,12315,20535,10,6,34,19,2,112,96,25,279,840,911,1327,1327,1327,1327,1327,1327,1327,1327,1327,1327,1327
226,302,302,1363,University of Maine at Machias,Machias,ME,-67.458025,44.708803,37100,66200,47.0,13,Maine,ME,Public,4 Year,8486.0,7840,16326,15100,23586,22,5,26,24,0,10,87,10,142,571,547,810,810,810,810,810,810,810,810,810,810,810
227,303,303,1364,University of Maine,Orono,ME,-68.669332,44.899257,52000,95000,50.0,24,Maine,ME,Public,4 Year,10418.0,11170,21588,30970,41388,133,144,212,241,2,546,993,261,1054,8693,5754,11286,11286,11286,11286,11286,11286,11286,11286,11286,11286,11286
228,304,304,1366,Maine Maritime Academy,Castine,ME,-68.804347,44.389654,67000,121800,65.0,48,Maine,ME,Public,4 Year,10310.0,13478,23788,27098,37408,3,7,6,8,2,0,26,0,27,1007,147,1060,1060,1060,1060,1060,1060,1060,1060,1060,1060,1060
229,305,305,1367,University of Maine at Presque Isle,Presque Isle,ME,-68.016343,46.672285,39000,70700,58.0,6,Maine,ME,Public,4 Year,8406.0,8035,16441,12235,20641,28,4,12,13,0,70,85,28,133,850,731,1138,1138,1138,1138,1138,1138,1138,1138,1138,1138,1138
230,306,306,1368,University of New England,Biddeford,ME,-70.38535,43.458591,50100,91500,69.0,7,Maine,ME,Private,4 Year,13990.0,37620,51610,37620,51610,27,301,387,82,15,45,908,96,1266,4210,4591,6429,6429,6429,6429,6429,6429,6429,6429,6429,6429,6429
231,307,307,1372,Saint Joseph's College of Maine,Standish,ME,-70.483373,43.826314,46900,84300,60.0,2,Maine,ME,Private,4 Year,13680.0,35650,49330,35650,49330,13,39,96,63,1,0,212,0,878,1843,2082,2933,2933,2933,2933,2933,2933,2933,2933,2933,2933,2933
232,308,308,1375,University of Southern Maine,Portland,ME,-70.274247,43.662863,46900,81300,55.0,8,Maine,ME,Public,4 Year,9450.0,9520,18970,22780,32230,76,164,224,147,7,69,787,169,1184,6388,5002,8428,8428,8428,8428,8428,8428,8428,8428,8428,8428,8428
233,311,311,1384,University of Baltimore,Baltimore,MD,-76.616591,39.305834,51000,89600,56.0,2,Maryland,MD,Public,4 Year,,8958,8958,21076,21076,18,289,2550,305,12,189,3376,202,251,2606,3748,6422,6422,6422,6422,6422,6422,6422,6422,6422,6422,6422
234,312,312,1385,Bowie State University,Bowie,MD,-76.759721,39.018185,50300,89900,65.0,11,Maryland,MD,Public,4 Year,10904.0,8233,19137,18873,29777,6,81,4751,147,9,234,5162,168,98,201,3583,5695,5695,5695,5695,5695,5695,5695,5695,5695,5695,5695
235,315,315,1395,Frostburg State University,Frostburg,MD,-78.934293,39.650918,49600,87000,48.0,19,Maryland,MD,Public,4 Year,10202.0,9172,19374,22892,33094,6,99,1466,244,5,123,2043,223,117,3362,2959,5645,5645,5645,5645,5645,5645,5645,5645,5645,5645,5645
236,316,316,1397,Goucher College,Baltimore,MD,-76.594843,39.410175,49400,90600,42.0,11,Maryland,MD,Private,4 Year,14506.0,44300,58806,44300,58806,5,55,218,137,1,25,478,62,397,1220,1502,2120,2120,2120,2120,2120,2120,2120,2120,2120,2120,2120
237,317,317,1400,Hood College,Frederick,MD,-77.419049,39.420631,47900,82600,49.0,32,Maryland,MD,Private,4 Year,12700.0,39492,52192,39492,52192,1,78,255,138,0,155,545,73,96,1569,1502,2365,2365,2365,2365,2365,2365,2365,2365,2365,2365,2365
238,318,318,1403,Johns Hopkins University,Baltimore,MD,-76.621595,39.328977,67200,117100,57.0,31,Maryland,MD,Private,4 Year,15836.0,54240,70076,54240,70076,35,2919,1419,1498,27,3770,6588,690,838,10176,11109,21372,21372,21372,21372,21372,21372,21372,21372,21372,21372,21372
239,319,319,1405,Loyola University Maryland,Baltimore,MD,-76.621872,39.346358,59900,111200,40.0,8,Maryland,MD,Private,4 Year,14430.0,49085,63515,49085,63515,12,190,465,470,5,52,1277,135,62,4576,3666,5967,5967,5967,5967,5967,5967,5967,5967,5967,5967,5967
240,323,323,1410,Maryland Institute College of Art,Baltimore,MD,-76.621033,39.308792,49000,84500,40.0,0,Maryland,MD,Private,4 Year,13280.0,48630,61910,48630,61910,3,259,137,140,3,301,658,116,136,1167,1624,2262,2262,2262,2262,2262,2262,2262,2262,2262,2262,2262
241,326,326,1419,Notre Dame of Maryland University,Baltimore,MD,-76.619739,39.350612,48300,86400,58.0,3,Maryland,MD,Private,4 Year,11850.0,36900,48750,36900,48750,22,188,631,113,6,31,960,0,58,1715,2388,2764,2764,2764,2764,2764,2764,2764,2764,2764,2764,2764
242,327,327,1423,Salisbury University,Salisbury,MD,-75.604815,38.34648,50400,89800,51.0,12,Maryland,MD,Public,4 Year,11950.0,9824,21774,19526,31476,34,216,1091,345,10,154,2002,306,301,6313,5138,8770,8770,8770,8770,8770,8770,8770,8770,8770,8770,8770
243,329,329,1426,Towson University,Towson,MD,-76.611164,39.393622,51200,91200,47.0,15,Maryland,MD,Public,4 Year,13034.0,9940,22974,23208,36242,33,1049,3456,1196,26,544,6573,813,1194,13974,13813,22285,22285,22285,22285,22285,22285,22285,22285,22285,22285,22285
244,331,331,1430,Stevenson University,Stevenson,MD,-76.702092,39.421988,50400,91600,51.0,15,Maryland,MD,Private,4 Year,13130.0,36182,49312,36182,49312,5,133,1267,194,8,26,1721,114,170,2405,2870,4322,4322,4322,4322,4322,4322,4322,4322,4322,4322,4322
245,333,333,1432,McDaniel College,Westminster,MD,-77.001992,39.584231,51100,94600,54.0,6,Maryland,MD,Private,4 Year,11430.0,43260,54690,43260,54690,15,89,336,133,3,34,576,0,166,2430,2044,3206,3206,3206,3206,3206,3206,3206,3206,3206,3206,3206
246,334,334,1436,Amherst College,Amherst,MA,-72.518493,42.372459,63800,116500,45.0,32,Massachusetts,MA,Private,4 Year,14740.0,56426,71166,56426,71166,6,234,222,235,1,172,779,81,90,751,865,1792,1792,1792,1792,1792,1792,1792,1792,1792,1792,1792
247,335,335,1440,Babson College,Wellesley,MA,-71.264057,42.297017,72000,133800,37.0,0,Massachusetts,MA,Private,4 Year,16312.0,51104,67416,51104,67416,4,274,119,244,2,914,701,58,240,1194,1305,3049,3049,3049,3049,3049,3049,3049,3049,3049,3049,3049
248,336,336,1446,Bentley University,Waltham,MA,-71.222839,42.385995,66600,116600,36.0,7,Massachusetts,MA,Private,4 Year,16320.0,49880,66200,49880,66200,4,433,149,325,0,1181,1013,102,233,3138,2385,5565,5565,5565,5565,5565,5565,5565,5565,5565,5565,5565
249,337,337,1452,Boston College,Chestnut Hill,MA,-71.169242,42.336213,63600,115400,43.0,13,Massachusetts,MA,Private,4 Year,14478.0,55464,69942,55464,69942,15,1144,575,1238,1,1401,3348,375,1269,8299,7808,14317,14317,14317,14317,14317,14317,14317,14317,14317,14317,14317
250,338,338,1453,Boston University,Boston,MA,-71.107942,42.351118,61400,113600,43.0,25,Massachusetts,MA,Private,4 Year,15720.0,53948,69668,53948,69668,27,3448,1190,2419,34,6412,7986,868,3072,14642,18765,32112,32112,32112,32112,32112,32112,32112,32112,32112,32112,32112
251,339,339,1454,Brandeis University,Waltham,MA,-71.260155,42.365727,60600,113200,48.0,29,Massachusetts,MA,Private,4 Year,15440.0,55395,70835,55395,70835,6,582,275,323,3,1384,1307,118,611,2643,3228,5945,5945,5945,5945,5945,5945,5945,5945,5945,5945,5945
252,340,340,1463,Clark University,Worcester,MA,-71.823356,42.249987,52600,101400,47.0,14,Massachusetts,MA,Private,4 Year,9170.0,45730,54900,45730,54900,3,179,121,169,2,847,533,59,291,1752,1946,3423,3423,3423,3423,3423,3423,3423,3423,3423,3423,3423
253,342,342,1486,College of the Holy Cross,Worcester,MA,-71.808214,42.23752,61800,114600,46.0,24,Massachusetts,MA,Private,4 Year,14520.0,52770,67290,52770,67290,5,141,110,296,1,40,651,98,183,1913,1366,2787,2787,2787,2787,2787,2787,2787,2787,2787,2787,2787
254,345,345,1497,MCPHS University,Boston,MA,-71.101244,42.336825,65900,121800,71.0,2,Massachusetts,MA,Private,4 Year,16400.0,32705,49105,32705,49105,7,1469,330,184,8,820,2022,24,1599,2494,4656,6935,6935,6935,6935,6935,6935,6935,6935,6935,6935,6935
255,346,346,1500,Massachusetts Institute of Technology,Cambridge,MA,-71.093226,42.359243,86300,155200,52.0,69,Massachusetts,MA,Private,4 Year,15510.0,51832,67342,51832,67342,18,1832,344,1087,1,3302,3697,415,572,3748,4226,11319,11319,11319,11319,11319,11319,11319,11319,11319,11319,11319
256,347,347,1501,Massachusetts Maritime Academy,Buzzards Bay,MA,-70.624084,41.739072,67900,117500,53.0,47,Massachusetts,MA,Public,4 Year,12675.0,9724,22399,26102,38777,18,38,33,42,1,7,142,10,27,1321,190,1497,1497,1497,1497,1497,1497,1497,1497,1497,1497,1497
257,348,348,1506,Merrimack College,North Andover,MA,-71.124216,42.668344,56000,102500,50.0,13,Massachusetts,MA,Private,4 Year,15845.0,41760,57605,41760,57605,3,45,99,177,0,193,371,47,636,2137,1744,3337,3337,3337,3337,3337,3337,3337,3337,3337,3337,3337
258,349,349,1520,Northeastern University,Boston,MA,-71.088782,42.339992,62500,109700,46.0,40,Massachusetts,MA,Private,4 Year,16880.0,51387,68267,51387,68267,10,1753,624,1103,7,5463,4094,597,1413,8828,9764,19798,19798,19798,19798,19798,19798,19798,19798,19798,19798,19798
259,350,350,1533,Smith College,Northampton,MA,-72.638097,42.318111,52700,98200,51.0,26,Massachusetts,MA,Private,4 Year,17520.0,52404,69924,52404,69924,5,348,149,276,2,388,908,128,246,1447,2927,2989,2989,2989,2989,2989,2989,2989,2989,2989,2989,2989
260,351,351,1538,Stonehill College,Easton,MA,-71.080632,42.05905,55900,103200,42.0,18,Massachusetts,MA,Private,4 Year,16000.0,42746,58746,42746,58746,1,51,99,103,1,18,296,41,61,1909,1353,2284,2284,2284,2284,2284,2284,2284,2284,2284,2284,2284
261,352,352,1541,Tufts University,Medford,MA,-71.118293,42.40855,65200,118100,49.0,25,Massachusetts,MA,Private,4 Year,14560.0,56382,70942,56382,70942,12,1353,368,594,4,1176,2740,409,1078,5913,5941,10907,10907,10907,10907,10907,10907,10907,10907,10907,10907,10907
262,353,353,1542,Wellesley College,Wellesley,MA,-71.306605,42.291554,58900,106200,48.0,34,Massachusetts,MA,Private,4 Year,16468.0,53732,70200,53732,70200,1,538,128,205,0,275,1010,138,106,932,2262,2323,2323,2323,2323,2323,2323,2323,2323,2323,2323,2323
263,354,354,1543,Wentworth Institute of Technology,Boston,MA,-71.094983,42.336632,62700,112700,53.0,39,Massachusetts,MA,Private,4 Year,14190.0,33950,48140,33950,48140,10,285,212,155,0,274,909,247,583,2792,886,4558,4558,4558,4558,4558,4558,4558,4558,4558,4558,4558
264,355,355,1544,Western New England University,Springfield,MA,-72.520466,42.115017,56400,103000,44.0,21,Massachusetts,MA,Private,4 Year,13590.0,36804,50394,36804,50394,10,147,234,273,2,111,708,42,351,2752,1761,3922,3922,3922,3922,3922,3922,3922,3922,3922,3922,3922
265,357,357,1547,Williams College,Williamstown,MA,-73.203132,42.712725,67500,127500,47.0,32,Massachusetts,MA,Private,4 Year,14500.0,55450,69950,55450,69950,3,223,147,243,0,191,762,146,0,1173,1081,2126,2126,2126,2126,2126,2126,2126,2126,2126,2126,2126
266,358,358,1548,Worcester Polytechnic Institute,Worcester,MA,-71.808339,42.274853,73600,135500,47.0,86,Massachusetts,MA,Private,4 Year,14774.0,50530,65304,50530,65304,5,294,130,394,0,1350,991,168,495,3545,1989,6381,6381,6381,6381,6381,6381,6381,6381,6381,6381,6381
267,359,359,1551,Albion College,Albion,MI,-84.745639,42.245049,52100,99300,44.0,23,Michigan,MI,Private,4 Year,12380.0,45775,58155,45775,58155,3,23,47,46,1,37,153,33,79,999,631,1268,1268,1268,1268,1268,1268,1268,1268,1268,1268,1268
268,360,360,1554,Alma College,Alma,MI,-84.672053,43.38004,48400,89900,52.0,15,Michigan,MI,Private,4 Year,10998.0,40258,51256,40258,51256,9,21,46,51,1,14,164,36,56,1162,764,1396,1396,1396,1396,1396,1396,1396,1396,1396,1396,1396
269,361,361,1556,Andrews University,Berrien Springs,MI,-86.355815,41.963859,47600,85000,51.0,7,Michigan,MI,Private,4 Year,9078.0,29288,38366,29288,38366,10,315,702,458,13,727,1569,71,79,1043,1583,3418,3418,3418,3418,3418,3418,3418,3418,3418,3418,3418
270,362,362,1565,Central Michigan University,Mount Pleasant,MI,-84.77525,43.591203,47700,83600,46.0,13,Michigan,MI,Public,4 Year,10076.0,12960,23036,12960,23036,181,317,3016,901,24,1110,5043,604,1067,19659,15307,26879,26879,26879,26879,26879,26879,26879,26879,26879,26879,26879
271,363,363,1568,Cleary University,Howell,MI,-83.879987,42.586638,47400,84700,50.0,0,Michigan,MI,Private,4 Year,9600.0,20250,29850,20250,29850,0,14,41,12,0,30,67,0,41,399,290,537,537,537,537,537,537,537,537,537,537,537
272,364,364,1571,College for Creative Studies,Detroit,MI,-83.062352,42.361839,51200,89800,40.0,0,Michigan,MI,Private,4 Year,8800.0,44110,52910,44110,52910,3,61,130,54,4,132,306,54,198,823,720,1459,1459,1459,1459,1459,1459,1459,1459,1459,1459,1459
273,365,365,1577,University of Detroit Mercy,Detroit,MI,-83.139158,42.414222,51800,92800,57.0,13,Michigan,MI,Private,4 Year,9496.0,28000,37496,28000,37496,17,242,504,133,11,576,1024,117,931,2414,2951,4945,4945,4945,4945,4945,4945,4945,4945,4945,4945,4945
274,366,366,1580,Eastern Michigan University,Ypsilanti,MI,-83.627443,42.251675,47300,86700,50.0,6,Michigan,MI,Public,4 Year,9854.0,13959,23813,13959,23813,52,565,4059,830,15,755,6225,704,562,14859,13362,22401,22401,22401,22401,22401,22401,22401,22401,22401,22401,22401
275,367,367,1582,Ferris State University,Big Rapids,MI,-85.481925,43.687724,50000,89300,50.0,8,Michigan,MI,Public,4 Year,9894.0,12630,22524,12630,22524,78,207,1013,556,7,439,2304,443,474,11383,7744,14600,14600,14600,14600,14600,14600,14600,14600,14600,14600,14600
276,368,368,1585,Kettering University,Flint,MI,-83.71282,43.012468,69900,125000,44.0,74,Michigan,MI,Private,4 Year,8240.0,43490,51730,43490,51730,4,61,91,71,2,135,277,48,175,1492,395,2079,2079,2079,2079,2079,2079,2079,2079,2079,2079,2079
277,369,369,1594,Hope College,Holland,MI,-86.100971,42.787247,49200,90900,51.0,18,Michigan,MI,Private,4 Year,10310.0,34010,44320,34010,44320,3,54,85,258,0,85,467,67,42,2861,2085,3455,3455,3455,3455,3455,3455,3455,3455,3455,3455,3455
278,370,370,1596,Kalamazoo College,Kalamazoo,MI,-85.601857,42.290789,51600,94500,52.0,31,Michigan,MI,Private,4 Year,9756.0,48516,58272,48516,58272,2,86,76,135,3,119,372,70,85,885,827,1461,1461,1461,1461,1461,1461,1461,1461,1461,1461,1461
279,371,371,1602,Lake Superior State University,Sault Ste Marie,MI,-84.365573,46.492849,45900,83500,48.0,14,Michigan,MI,Public,4 Year,9882.0,12090,21972,12090,21972,208,13,80,58,0,159,359,0,35,1854,1258,2407,2407,2407,2407,2407,2407,2407,2407,2407,2407,2407
280,372,372,1604,Lawrence Technological University,Southfield,MI,-83.25003,42.474072,57900,108400,49.0,60,Michigan,MI,Private,4 Year,9950.0,33570,43520,33570,43520,13,925,234,100,1,233,1273,0,638,1871,1022,4015,4015,4015,4015,4015,4015,4015,4015,4015,4015,4015
281,374,374,1611,Michigan State University,East Lansing,MI,-84.476111,42.73212,55300,100800,46.0,20,Michigan,MI,Public,4 Year,10322.0,14460,24782,39765,50087,127,2214,3196,1878,46,7642,8678,1217,646,33115,25767,50081,50081,50081,50081,50081,50081,50081,50081,50081,50081,50081
282,375,375,1612,Michigan Technological University,Houghton,MI,-88.548092,47.11866,65000,116300,47.0,81,Michigan,MI,Public,4 Year,10756.0,15646,26402,33726,44482,33,82,95,117,8,1093,491,156,214,5301,1867,7099,7099,7099,7099,7099,7099,7099,7099,7099,7099,7099
283,378,378,1624,Oakland University,Rochester Hills,MI,-83.216418,42.674573,51300,93300,49.0,19,Michigan,MI,Public,4 Year,10100.0,12606,22706,24230,34330,79,955,1601,565,17,650,3709,492,1024,15136,11927,20519,20519,20519,20519,20519,20519,20519,20519,20519,20519,20519
284,379,379,1632,Saginaw Valley State University,University Center,MI,-83.964273,43.51176,46400,82200,54.0,12,Michigan,MI,Public,4 Year,10186.0,10308,20494,24215,34401,32,72,950,336,4,632,1556,162,606,7035,5804,9829,9829,9829,9829,9829,9829,9829,9829,9829,9829,9829
285,380,380,1646,Wayne State University,Detroit,MI,-83.068998,42.358994,50800,91700,53.0,21,Michigan,MI,Public,4 Year,10427.0,13347,23774,28241,38668,82,2057,4881,983,35,2275,8727,689,1572,15004,15409,27578,27578,27578,27578,27578,27578,27578,27578,27578,27578,27578
286,381,381,1649,Western Michigan University,Kalamazoo,MI,-85.613759,42.282194,50900,92200,47.0,16,Michigan,MI,Public,4 Year,10143.0,12483,22626,15373,25516,106,388,2634,1117,28,1854,4969,696,248,16843,12214,23914,23914,23914,23914,23914,23914,23914,23914,23914,23914,23914
287,383,383,1663,Carleton College,Northfield,MN,-93.154666,44.462318,58800,109900,47.0,45,Minnesota,MN,Private,4 Year,14085.0,54759,68844,54759,68844,3,184,79,130,2,197,491,93,36,1333,1086,2057,2057,2057,2057,2057,2057,2057,2057,2057,2057,2057
288,386,386,1672,Gustavus Adolphus College,Saint Peter,MN,-93.972196,44.323626,51200,96800,47.0,22,Minnesota,MN,Private,4 Year,9910.0,45400,55310,45400,55310,2,97,46,81,1,65,313,86,5,2074,1332,2457,2457,2457,2457,2457,2457,2457,2457,2457,2457,2457
289,387,387,1673,Hamline University,Saint Paul,MN,-93.164479,44.966246,48100,90400,52.0,5,Minnesota,MN,Private,4 Year,10358.0,41298,51656,41298,51656,25,180,190,180,5,79,711,131,1424,2255,2770,4469,4469,4469,4469,4469,4469,4469,4469,4469,4469,4469
290,388,388,1681,Macalester College,Saint Paul,MN,-93.168053,44.938565,53600,100400,51.0,31,Minnesota,MN,Private,4 Year,12156.0,54344,66500,54344,66500,1,146,49,123,1,281,431,111,0,1361,1255,2073,2073,2073,2073,2073,2073,2073,2073,2073,2073,2073
291,390,390,1686,Metropolitan State University,Saint Paul,MN,-93.074361,44.957256,50200,85900,53.0,11,Minnesota,MN,Public,4 Year,,7879,7879,14980,14980,56,1007,1499,397,9,182,3314,346,220,4639,4709,8355,8355,8355,8355,8355,8355,8355,8355,8355,8355,8355
292,393,393,1689,Minneapolis College of Art and Design,Minneapolis,MN,-93.274705,44.956988,47400,84700,39.0,0,Minnesota,MN,Private,4 Year,5610.0,39210,44820,39210,44820,7,57,31,48,0,0,143,0,194,446,514,783,783,783,783,783,783,783,783,783,783,783
293,404,404,1727,Winona State University,Winona,MN,-91.643723,44.046159,49700,86800,51.0,10,Minnesota,MN,Public,4 Year,9010.0,9425,18435,15348,24358,9,161,199,208,5,289,758,176,136,7501,5431,8684,8684,8684,8684,8684,8684,8684,8684,8684,8684,8684
294,405,405,1730,Alcorn State University,Alcorn State,MS,-91.142854,31.877216,40900,69500,67.0,19,Mississippi,MS,Public,4 Year,9608.0,7144,16752,7144,16752,3,10,3386,12,11,58,3479,57,0,102,2395,3639,3639,3639,3639,3639,3639,3639,3639,3639,3639,3639
295,406,406,1731,Belhaven University,Jackson,MS,-90.169228,32.318415,41200,74300,60.0,2,Mississippi,MS,Private,4 Year,8500.0,25300,33800,25300,33800,23,20,2253,144,7,85,2508,61,366,1155,2815,4114,4114,4114,4114,4114,4114,4114,4114,4114,4114,4114
296,407,407,1737,Delta State University,Cleveland,MS,-90.735365,33.744745,40800,74200,63.0,5,Mississippi,MS,Public,4 Year,7722.0,7246,14968,7246,14968,4,24,1325,45,5,111,1426,23,41,2036,2244,3614,3614,3614,3614,3614,3614,3614,3614,3614,3614,3614
297,408,408,1745,Jackson State University,Jackson,MS,-90.207405,32.296105,41700,74600,67.0,16,Mississippi,MS,Public,4 Year,9552.0,8226,17778,19454,29006,39,43,8491,38,1,276,8708,96,0,524,6145,9508,9508,9508,9508,9508,9508,9508,9508,9508,9508,9508
298,409,409,1748,Millsaps College,Jackson,MS,-90.179957,32.322746,49300,88700,56.0,24,Mississippi,MS,Private,4 Year,13730.0,39910,53640,39910,53640,6,35,89,18,0,31,154,6,28,629,413,842,842,842,842,842,842,842,842,842,842,842
299,410,410,1751,University of Mississippi,University,MS,-89.537434,34.365529,48500,89100,55.0,12,Mississippi,MS,Public,4 Year,10696.0,8660,19356,24614,35310,64,429,3178,610,23,793,4775,471,53,16882,12625,22503,22503,22503,22503,22503,22503,22503,22503,22503,22503,22503
300,411,411,1752,Mississippi University for Women,Columbus,MS,-88.418601,33.493305,39500,69500,63.0,2,Mississippi,MS,Public,4 Year,7424.0,7040,14464,7040,14464,6,41,987,20,2,55,1068,12,0,1573,2192,2696,2696,2696,2696,2696,2696,2696,2696,2696,2696,2696
301,412,412,1753,Mississippi Valley State University,Itta Bena,MS,-90.341274,33.514142,32500,61900,70.0,11,Mississippi,MS,Public,4 Year,8043.0,6570,14613,6570,14613,1,13,2033,25,0,0,2072,0,80,70,1315,2222,2222,2222,2222,2222,2222,2222,2222,2222,2222,2222
302,413,413,1754,Mississippi College,Clinton,MS,-90.329821,32.335515,45200,79500,57.0,20,Mississippi,MS,Private,4 Year,10300.0,18026,28326,18026,28326,26,118,1164,124,5,390,1489,52,263,2842,2961,4984,4984,4984,4984,4984,4984,4984,4984,4984,4984,4984
303,414,414,1757,Mississippi State University,Mississippi State,MS,-88.790139,33.454852,51100,94100,57.0,27,Mississippi,MS,Public,4 Year,10090.0,8760,18850,23360,33450,104,263,3871,457,17,780,4985,273,164,14209,9786,20138,20138,20138,20138,20138,20138,20138,20138,20138,20138,20138
304,415,415,1761,Rust College,Holly Springs,MS,-89.446999,34.776862,34800,62400,76.0,32,Mississippi,MS,Private,4 Year,4300.0,9900,14200,9900,14200,0,2,924,0,0,33,926,0,0,4,563,963,963,963,963,963,963,963,963,963,963,963
305,416,416,1764,University of Southern Mississippi,Hattiesburg,MS,-89.331236,31.32661,45100,83900,56.0,11,Mississippi,MS,Public,4 Year,9857.0,8734,18591,10734,20591,48,172,4033,457,14,375,5040,316,69,9308,9344,14792,14792,14792,14792,14792,14792,14792,14792,14792,14792,14792
306,417,417,1766,Tougaloo College,Tougaloo,MS,-90.16076,32.403014,36900,66400,69.0,18,Mississippi,MS,Private,4 Year,6643.0,10790,17433,10790,17433,1,0,887,4,0,4,892,0,0,4,588,900,900,900,900,900,900,900,900,900,900,900
307,418,418,1769,William Carey University,Hattiesburg,MS,-89.291815,31.305264,41100,71800,61.0,6,Mississippi,MS,Private,4 Year,6810.0,12600,19410,12600,19410,17,119,1096,59,0,95,1291,0,50,2500,2636,3936,3936,3936,3936,3936,3936,3936,3936,3936,3936,3936
308,419,419,1771,Avila University,Kansas City,MO,-94.591758,38.91339,45900,81200,68.0,3,Missouri,MO,Private,4 Year,7200.0,19900,27100,19900,27100,14,31,359,125,5,196,577,43,0,1134,1245,1907,1907,1907,1907,1907,1907,1907,1907,1907,1907,1907
309,420,420,1779,University of Central Missouri,Warrensburg,MO,-93.737428,38.759111,46900,83300,54.0,45,Missouri,MO,Public,4 Year,8766.0,7673,16439,14442,23208,26,124,886,322,10,1899,1634,266,1807,8039,7149,13379,13379,13379,13379,13379,13379,13379,13379,13379,13379,13379
310,421,421,1789,Drury University,Springfield,MO,-93.286192,37.219681,42600,79400,60.0,12,Missouri,MO,Private,4 Year,8096.0,28365,36461,28365,36461,41,48,159,206,7,196,545,84,0,3474,2548,4215,4215,4215,4215,4215,4215,4215,4215,4215,4215,4215
311,424,424,1810,Lindenwood University,Saint Charles,MO,-90.501286,38.785425,45100,78500,48.0,9,Missouri,MO,Private,4 Year,9000.0,17600,26600,17600,26600,46,58,2019,374,21,1191,2825,307,1305,6830,7131,12151,12151,12151,12151,12151,12151,12151,12151,12151,12151,12151
312,425,425,1815,Maryville University of Saint Louis,Saint Louis,MO,-90.505998,38.644774,46800,80100,53.0,2,Missouri,MO,Private,4 Year,10088.0,28470,38558,28470,38558,39,164,577,219,13,111,1154,142,246,4420,4688,5931,5931,5931,5931,5931,5931,5931,5931,5931,5931,5931
313,426,426,1823,Missouri Western State University,Saint Joseph,MO,-94.785643,39.7575,43400,77700,53.0,14,Missouri,MO,Public,4 Year,,6466,6466,14137,14137,29,74,600,60,12,118,938,163,192,4586,3391,5834,5834,5834,5834,5834,5834,5834,5834,5834,5834,5834
314,429,429,1826,Missouri University of Science and Technology,Rolla,MO,-91.775583,37.953426,67300,122600,50.0,80,Missouri,MO,Public,4 Year,10274.0,10169,20443,28499,38773,30,226,290,256,14,1516,983,167,309,5832,1954,8640,8640,8640,8640,8640,8640,8640,8640,8640,8640,8640
315,431,431,1832,Truman State University,Kirksville,MO,-92.581658,40.188267,47900,85800,48.0,16,Missouri,MO,Public,4 Year,8780.0,7729,16509,14581,23361,8,115,218,173,6,401,677,157,130,5040,3753,6248,6248,6248,6248,6248,6248,6248,6248,6248,6248,6248
316,432,432,1833,Northwest Missouri State University,Maryville,MO,-94.883339,40.351692,46900,85100,50.0,26,Missouri,MO,Public,4 Year,10016.0,9805,19821,16457,26473,20,39,374,182,8,708,790,167,241,4981,3595,6720,6720,6720,6720,6720,6720,6720,6720,6720,6720,6720
317,433,433,1836,Park University,Parkville,MO,-94.679041,39.189256,48500,85000,56.0,7,Missouri,MO,Private,4 Year,8200.0,12650,20850,12650,20850,80,267,2014,1337,48,146,4053,307,0,6593,5158,10792,10792,10792,10792,10792,10792,10792,10792,10792,10792,10792
318,434,434,1841,Rockhurst University,Kansas City,MO,-94.573003,39.032318,54000,92500,59.0,11,Missouri,MO,Private,4 Year,10200.0,37590,47790,37590,47790,5,91,146,143,3,33,467,79,237,2265,1737,3002,3002,3002,3002,3002,3002,3002,3002,3002,3002,3002
319,435,435,1843,Saint Louis University,Saint Louis,MO,-90.2351,38.636801,54200,95300,56.0,13,Missouri,MO,Private,4 Year,12290.0,43884,56174,43884,56174,13,1111,1091,567,0,973,3481,699,533,12065,10004,17052,17052,17052,17052,17052,17052,17052,17052,17052,17052,17052
320,436,436,1854,Stephens College,Columbia,MO,-92.319204,38.95204,42800,77200,47.0,6,Missouri,MO,Private,4 Year,10632.0,30950,41582,30950,41582,3,12,117,31,4,2,215,48,21,624,831,862,862,862,862,862,862,862,862,862,862,862
321,437,437,1855,Southeast Missouri State University,Cape Girardeau,MO,-89.531187,37.311107,43700,79100,52.0,9,Missouri,MO,Public,4 Year,8935.0,7418,16353,13155,22090,55,118,1022,189,4,1061,1401,13,694,8931,6927,12087,12087,12087,12087,12087,12087,12087,12087,12087,12087,12087
322,440,440,1861,Webster University,Saint Louis,MO,-90.345151,38.588875,46500,83500,50.0,2,Missouri,MO,Private,4 Year,11050.0,27900,38950,27900,38950,75,423,6217,1159,31,355,8219,314,1029,7166,9463,16769,16769,16769,16769,16769,16769,16769,16769,16769,16769,16769
323,441,441,1863,William Jewell College,Liberty,MO,-94.413126,39.247844,51400,94500,60.0,12,Missouri,MO,Private,4 Year,9930.0,34400,44330,34400,44330,4,10,59,36,2,46,171,60,25,818,636,1060,1060,1060,1060,1060,1060,1060,1060,1060,1060,1060
324,442,442,1870,Carroll College,Helena,MT,-112.040285,46.600771,48200,91400,55.0,25,Montana,MT,Private,4 Year,9880.0,35486,45366,35486,45366,18,21,11,71,4,23,148,23,136,1133,839,1440,1440,1440,1440,1440,1440,1440,1440,1440,1440,1440
325,447,447,1886,Rocky Mountain College,Billings,MT,-108.554075,45.796522,46000,82900,59.0,12,Montana,MT,Private,4 Year,8330.0,28512,36842,28512,36842,21,10,32,18,5,47,153,67,23,784,487,1007,1007,1007,1007,1007,1007,1007,1007,1007,1007,1007
326,449,449,1890,Bellevue University,Bellevue,NE,-95.91764,41.150225,49400,84800,57.0,23,Nebraska,NE,Private,4 Year,8730.0,9390,18120,9390,18120,49,214,1168,676,30,290,2348,211,1601,5640,5254,9879,9879,9879,9879,9879,9879,9879,9879,9879,9879,9879
327,450,450,1891,Clarkson College,Omaha,NE,-95.974847,41.259165,50900,91500,74.0,0,Nebraska,NE,Private,4 Year,5398.0,16920,22318,16920,22318,7,29,53,36,2,0,146,19,124,951,1072,1221,1221,1221,1221,1221,1221,1221,1221,1221,1221,1221
328,451,451,1894,Chadron State College,Chadron,NE,-103.001615,42.8199,42300,76700,66.0,3,Nebraska,NE,Public,4 Year,7380.0,7196,14576,7196,14576,36,25,116,180,11,55,451,83,232,2295,1765,3033,3033,3033,3033,3033,3033,3033,3033,3033,3033,3033
329,453,453,1897,Creighton University,Omaha,NE,-95.947811,41.265361,53500,95800,56.0,9,Nebraska,NE,Private,4 Year,11036.0,39916,50952,39916,50952,36,742,330,472,25,196,1864,259,215,5961,4715,8236,8236,8236,8236,8236,8236,8236,8236,8236,8236,8236
330,454,454,1899,Hastings College,Hastings,NE,-98.374403,40.59025,48600,87100,55.0,14,Nebraska,NE,Private,4 Year,9700.0,30050,39750,30050,39750,6,16,41,67,4,22,167,33,13,1010,591,1212,1212,1212,1212,1212,1212,1212,1212,1212,1212,1212
331,457,457,1906,Midland University,Fremont,NE,-96.488008,41.43674,43800,78100,60.0,7,Nebraska,NE,Private,4 Year,8776.0,32558,41334,32558,41334,5,10,68,38,6,65,219,92,200,878,683,1362,1362,1362,1362,1362,1362,1362,1362,1362,1362,1362
332,459,459,1909,University of Nebraska Medical Center,Omaha,NE,-95.973966,41.256312,53400,93000,79.0,6,Nebraska,NE,Public,4 Year,,11558,11558,28898,28898,10,175,61,122,1,303,412,43,67,2914,2372,3696,3696,3696,3696,3696,3696,3696,3696,3696,3696,3696
333,460,460,1910,Nebraska Wesleyan University,Lincoln,NE,-96.64831,40.839098,45700,80500,60.0,8,Nebraska,NE,Private,4 Year,9622.0,34202,43824,34202,43824,6,38,60,92,2,43,228,30,110,1702,1329,2083,2083,2083,2083,2083,2083,2083,2083,2083,2083,2083
334,462,462,1913,Peru State College,Peru,NE,-95.732731,40.474689,42600,74800,50.0,6,Nebraska,NE,Public,4 Year,8010.0,7452,15462,7482,15492,15,31,182,130,7,0,433,68,117,1949,1497,2499,2499,2499,2499,2499,2499,2499,2499,2499,2499,2499
335,463,463,1915,College of Saint Mary,Omaha,NE,-96.021425,41.240028,43900,77700,45.0,9,Nebraska,NE,Private,4 Year,7700.0,20350,28050,20350,28050,5,17,63,102,1,7,213,25,4,794,995,1018,1018,1018,1018,1018,1018,1018,1018,1018,1018,1018
336,464,464,1920,Wayne State College,Wayne,NE,-97.015122,42.241556,40600,73400,54.0,11,Nebraska,NE,Public,4 Year,7668.0,6989,14657,12299,19967,25,19,95,229,2,18,425,55,293,2734,1990,3470,3470,3470,3470,3470,3470,3470,3470,3470,3470,3470
337,467,467,1934,Colby-Sawyer College,New London,NH,-71.975805,43.411663,46400,83700,43.0,7,New Hampshire,NH,Private,4 Year,14264.0,42398,56662,42398,56662,3,21,88,41,1,139,161,7,209,860,949,1369,1369,1369,1369,1369,1369,1369,1369,1369,1369,1369
338,468,468,1936,Dartmouth College,Hanover,NH,-72.289949,43.704115,71500,130900,44.0,35,New Hampshire,NH,Private,4 Year,15756.0,55453,71209,55453,71209,102,775,341,446,7,964,1916,245,450,2968,2967,6298,6298,6298,6298,6298,6298,6298,6298,6298,6298,6298
339,469,469,1939,Franklin Pierce University,Rindge,NH,-72.058011,42.78014,47800,85600,52.0,3,New Hampshire,NH,Private,4 Year,13345.0,36900,50245,36900,50245,10,36,81,40,3,54,233,63,257,1731,1280,2275,2275,2275,2275,2275,2275,2275,2275,2275,2275,2275
340,470,470,1944,New England College,Henniker,NH,-71.822282,43.176403,45700,86400,43.0,24,New Hampshire,NH,Private,4 Year,14222.0,37914,52136,37914,52136,11,48,411,148,0,86,638,20,158,1517,1422,2399,2399,2399,2399,2399,2399,2399,2399,2399,2399,2399
341,471,471,1946,Southern New Hampshire University,Manchester,NH,-71.451842,43.038922,47400,83400,49.0,8,New Hampshire,NH,Private,4 Year,13120.0,31136,44256,31136,44256,152,337,2373,1009,33,1251,3964,60,27213,10846,26293,43274,43274,43274,43274,43274,43274,43274,43274,43274,43274,43274
342,473,473,1949,Keene State College,Keene,NH,-72.279276,42.926452,48900,83600,49.0,8,New Hampshire,NH,Public,4 Year,11026.0,14212,25238,23176,34202,14,56,48,156,2,2,373,97,430,4152,2831,4957,4957,4957,4957,4957,4957,4957,4957,4957,4957,4957
343,474,474,1950,University of New Hampshire at Manchester,Manchester,NH,-71.468755,42.987209,51900,90900,50.0,32,New Hampshire,NH,Public,4 Year,,15265,15265,30635,30635,1,20,13,31,0,2,82,17,170,596,445,850,850,850,850,850,850,850,850,850,850,850
344,475,475,1951,Plymouth State University,Plymouth,NH,-71.690164,43.759573,47000,82200,50.0,6,New Hampshire,NH,Public,4 Year,11100.0,14099,25199,22769,33869,13,100,101,122,0,126,397,61,547,3785,2524,4855,4855,4855,4855,4855,4855,4855,4855,4855,4855,4855
345,477,477,1961,Saint Anselm College,Manchester,NH,-71.503622,42.986889,56400,100300,59.0,11,New Hampshire,NH,Private,4 Year,14500.0,41200,55700,41200,55700,3,12,36,57,2,12,144,34,242,1570,1186,1968,1968,1968,1968,1968,1968,1968,1968,1968,1968,1968
346,478,478,1963,Granite State College,Concord,NH,-71.527241,43.19291,43500,76900,67.0,3,New Hampshire,NH,Public,4 Year,,9645,9645,10875,10875,11,19,31,47,1,1,146,37,196,1866,1640,2209,2209,2209,2209,2209,2209,2209,2209,2209,2209,2209
347,479,479,1964,Thomas More College of Liberal Arts,Merrimack,NH,-71.48437,42.80683,48900,88300,,0,New Hampshire,NH,Private,4 Year,9700.0,21600,31300,21600,31300,0,2,1,2,0,4,5,0,13,71,53,93,93,93,93,93,93,93,93,93,93,93
348,480,480,1973,Bloomfield College,Bloomfield,NJ,-74.194309,40.795105,48400,89100,55.0,17,New Jersey,NJ,Private,4 Year,11950.0,29550,41500,29550,41500,12,56,1044,484,8,70,1615,11,103,216,1278,2004,2004,2004,2004,2004,2004,2004,2004,2004,2004,2004
349,481,481,1985,Drew University,Madison,NJ,-74.424584,40.761829,52800,95000,37.0,16,New Jersey,NJ,Private,4 Year,14108.0,39500,53608,39500,53608,4,105,249,204,2,180,616,52,301,1016,1247,2113,2113,2113,2113,2113,2113,2113,2113,2113,2113,2113
350,483,483,1990,Felician University,Lodi,NJ,-74.096452,40.867272,53200,98200,51.0,10,New Jersey,NJ,Private,4 Year,12880.0,34315,47195,34315,47195,10,134,382,486,11,52,1035,12,149,717,1450,1953,1953,1953,1953,1953,1953,1953,1953,1953,1953,1953
351,486,486,1994,Rowan University,Glassboro,NJ,-75.119119,39.709108,51100,91200,43.0,21,New Jersey,NJ,Public,4 Year,12552.0,13697,26249,22339,34891,35,814,1342,1301,13,156,3822,317,595,10205,7430,14778,14778,14778,14778,14778,14778,14778,14778,14778,14778,14778
352,487,487,2000,New Jersey City University,Jersey City,NJ,-74.08727,40.709937,48700,87600,55.0,9,New Jersey,NJ,Public,4 Year,12738.0,12051,24789,21573,34311,19,660,1624,2623,0,143,5024,98,651,2318,5158,8136,8136,8136,8136,8136,8136,8136,8136,8136,8136,8136
353,488,488,2002,Kean University,Union,NJ,-74.233503,40.677981,48200,90000,51.0,10,New Jersey,NJ,Public,4 Year,14470.0,12348,26818,19383,33853,19,802,2802,3443,48,195,7358,244,983,5823,9034,14359,14359,14359,14359,14359,14359,14359,14359,14359,14359,14359
354,489,489,2007,Monmouth University,West Long Branch,NJ,-74.006447,40.280066,52200,93200,44.0,13,New Jersey,NJ,Private,4 Year,13981.0,38138,52119,38138,52119,8,215,351,585,7,133,1293,127,266,4703,4073,6395,6395,6395,6395,6395,6395,6395,6395,6395,6395,6395
355,490,490,2008,Montclair State University,Montclair,NJ,-74.198141,40.860414,50800,95400,42.0,9,New Jersey,NJ,Public,4 Year,15564.0,12790,28354,20578,36142,13,1015,1946,4447,38,552,8096,637,1742,9632,12654,20022,20022,20022,20022,20022,20022,20022,20022,20022,20022,20022
356,491,491,2013,New Jersey Institute of Technology,Newark,NJ,-74.177113,40.741997,64600,121300,51.0,75,New Jersey,NJ,Public,4 Year,13600.0,17338,30938,32750,46350,6,1901,899,1749,3,1803,4825,267,1084,2934,2665,10646,10646,10646,10646,10646,10646,10646,10646,10646,10646,10646
357,492,492,2020,Princeton University,Princeton,NJ,-74.659365,40.348732,75200,139400,48.0,48,New Jersey,NJ,Private,4 Year,16290.0,49330,65620,49330,65620,10,1282,474,571,7,1692,2625,281,277,3494,3669,8088,8088,8088,8088,8088,8088,8088,8088,8088,8088,8088
358,493,493,2022,Ramapo College of New Jersey,Mahwah,NJ,-74.174086,41.080942,51600,95200,41.0,12,New Jersey,NJ,Public,4 Year,12450.0,14374,26824,23715,36165,16,377,319,781,11,97,1574,70,462,3870,3359,6003,6003,6003,6003,6003,6003,6003,6003,6003,6003,6003
359,494,494,2024,Rider University,Lawrenceville,NJ,-74.737833,40.278796,51600,99000,47.0,5,New Jersey,NJ,Private,4 Year,14700.0,41310,56010,41310,56010,8,235,529,528,8,219,1426,118,282,3367,3184,5294,5294,5294,5294,5294,5294,5294,5294,5294,5294,5294
360,498,498,2030,Saint Peter's University,Jersey City,NJ,-74.071541,40.727105,52900,95900,35.0,14,New Jersey,NJ,Private,4 Year,15414.0,37486,52900,37486,52900,24,235,819,950,14,74,2099,57,365,764,2028,3302,3302,3302,3302,3302,3302,3302,3302,3302,3302,3302
361,499,499,2032,Seton Hall University,South Orange,NJ,-74.246027,40.742336,57100,103800,45.0,8,New Jersey,NJ,Private,4 Year,15800.0,42470,58270,42470,58270,10,688,1098,1364,30,407,3379,189,1041,4800,5642,9627,9627,9627,9627,9627,9627,9627,9627,9627,9627,9627
362,500,500,2036,Stevens Institute of Technology,Hoboken,NJ,-74.025334,40.744776,75100,139900,47.0,79,New Jersey,NJ,Private,4 Year,15244.0,52202,67446,52202,67446,5,436,96,321,0,1896,858,0,1208,2163,1738,6125,6125,6125,6125,6125,6125,6125,6125,6125,6125,6125
363,501,501,2037,Stockton University,Galloway,NJ,-74.531087,39.492036,47400,85800,49.0,16,New Jersey,NJ,Public,4 Year,12282.0,13739,26021,20866,33148,10,439,532,848,12,30,2080,239,143,6317,5221,8570,8570,8570,8570,8570,8570,8570,8570,8570,8570,8570
364,502,502,2040,Thomas Edison State University,Trenton,NJ,-74.768562,40.220487,52500,95600,54.0,0,New Jersey,NJ,Public,4 Year,,7519,7519,9967,9967,135,839,3153,1807,138,222,6422,350,2872,11979,10430,21495,21495,21495,21495,21495,21495,21495,21495,21495,21495,21495
365,504,504,2043,William Paterson University of New Jersey,Wayne,NJ,-74.200248,40.945255,50500,90200,44.0,7,New Jersey,NJ,Public,4 Year,11445.0,13060,24505,21260,32705,11,704,1483,2740,25,110,5213,250,505,5220,6357,11048,11048,11048,11048,11048,11048,11048,11048,11048,11048,11048
366,506,506,2052,New Mexico Highlands University,Las Vegas,NM,-105.219197,35.596233,40400,73800,63.0,4,New Mexico,NM,Public,4 Year,7872.0,6150,14022,10302,18174,233,29,163,1891,18,199,2377,43,127,843,2268,3546,3546,3546,3546,3546,3546,3546,3546,3546,3546,3546
367,507,507,2056,New Mexico Institute of Mining and Technology,Socorro,NM,-106.905211,34.067041,64700,120400,61.0,91,New Mexico,NM,Public,4 Year,8510.0,7770,16280,22268,30778,54,67,46,522,2,151,762,71,23,1191,684,2127,2127,2127,2127,2127,2127,2127,2127,2127,2127,2127
368,510,510,2073,Western New Mexico University,Silver City,NM,-108.283284,32.7767,41700,76700,75.0,4,New Mexico,NM,Public,4 Year,9136.0,6824,15960,15231,24367,100,46,145,1442,5,49,1755,17,760,993,2220,3557,3557,3557,3557,3557,3557,3557,3557,3557,3557,3557
369,511,511,2078,Albany College of Pharmacy and Health Sciences,Albany,NY,-73.779063,42.650371,81000,144800,82.0,2,New York,NY,Private,4 Year,10920.0,35105,46025,35105,46025,4,228,59,63,2,118,372,16,86,987,932,1563,1563,1563,1563,1563,1563,1563,1563,1563,1563,1563
370,512,512,2093,Barnard College,New York,NY,-73.963346,40.810098,59200,109800,57.0,19,New York,NY,Private,4 Year,17225.0,55032,72257,55032,72257,1,367,168,286,1,192,956,133,16,1409,2568,2573,2573,2573,2573,2573,2573,2573,2573,2573,2573,2573
371,513,513,2118,Clarkson University,Potsdam,NY,-74.999359,44.662716,66400,130100,58.0,58,New York,NY,Private,4 Year,14908.0,49444,64352,49444,64352,10,122,77,170,1,319,453,73,109,2992,1184,3873,3873,3873,3873,3873,3873,3873,3873,3873,3873,3873
372,514,514,2122,Colgate University,Hamilton,NY,-75.536346,42.819475,68400,130600,41.0,26,New York,NY,Private,4 Year,13995.0,55870,69865,55870,69865,2,103,120,243,3,252,572,101,122,1942,1570,2888,2888,2888,2888,2888,2888,2888,2888,2888,2888,2888
373,517,517,2130,Cornell University,Ithaca,NY,-76.483084,42.4472,70100,128200,45.0,43,New York,NY,Private,4 Year,14816.0,55188,70004,55188,70004,64,3129,1059,1994,15,4384,7023,762,1673,8599,10507,21679,21679,21679,21679,21679,21679,21679,21679,21679,21679,21679
374,518,518,2167,Fordham University,Bronx,NY,-73.882705,40.859354,58700,112500,38.0,10,New York,NY,Private,4 Year,17969.0,52687,70656,52687,70656,18,1164,959,1879,15,1902,4455,420,509,8365,8903,15231,15231,15231,15231,15231,15231,15231,15231,15231,15231,15231
375,521,521,2179,Hofstra University,Hempstead,NY,-73.60078,40.715959,57300,110400,38.0,7,New York,NY,Private,4 Year,15948.0,46760,62708,46760,62708,31,893,909,1254,78,1072,3363,198,604,5914,6139,10953,10953,10953,10953,10953,10953,10953,10953,10953,10953,10953
376,522,522,2201,Manhattan College,Riverdale,NY,-73.901893,40.889756,64000,125700,46.0,40,New York,NY,Private,4 Year,16200.0,43480,59680,43480,59680,7,151,138,701,0,135,1069,72,645,2121,1791,3970,3970,3970,3970,3970,3970,3970,3970,3970,3970,3970
377,523,523,2238,New York University,New York,NY,-73.997264,40.729452,63100,117700,42.0,18,New York,NY,Private,4 Year,18156.0,51828,69984,51828,69984,94,7314,2374,4267,45,11495,15342,1248,5111,17326,27153,49274,49274,49274,49274,49274,49274,49274,49274,49274,49274,49274
378,524,524,2263,Rensselaer Polytechnic Institute,Troy,NY,-73.676646,42.729978,71300,134100,49.0,78,New York,NY,Private,4 Year,15260.0,53880,69140,53880,69140,6,629,182,439,3,1146,1645,386,131,3913,2078,6835,6835,6835,6835,6835,6835,6835,6835,6835,6835,6835
379,525,525,2266,University of Rochester,Rochester,NY,-77.631202,43.126397,61100,112700,50.0,32,New York,NY,Private,4 Year,15938.0,53926,69864,53926,69864,28,915,491,533,5,2610,2213,241,922,5315,5626,11060,11060,11060,11060,11060,11060,11060,11060,11060,11060,11060
380,531,531,2342,Webb Institute,Glen Cove,NY,-73.644909,40.884444,80800,141800,,100,New York,NY,Private,4 Year,15050.0,50175,65225,50175,65225,0,8,0,0,0,1,12,4,1,76,12,90,90,90,90,90,90,90,90,90,90,90
381,532,532,2352,Yeshiva University,New York,NY,-73.929873,40.850605,63500,112800,40.0,11,New York,NY,Private,4 Year,12250.0,43500,55750,43500,55750,6,289,144,199,15,643,682,29,931,4092,3283,6348,6348,6348,6348,6348,6348,6348,6348,6348,6348,6348
382,533,533,2357,Appalachian State University,Boone,NC,-81.680583,36.215536,46600,82700,47.0,9,North Carolina,NC,Public,4 Year,8304.0,7214,15518,22021,30325,44,267,584,702,11,216,2049,441,314,15447,9974,18026,18026,18026,18026,18026,18026,18026,18026,18026,18026,18026
383,534,534,2359,Barton College,Wilson,NC,-77.913867,35.734376,42400,77900,62.0,6,North Carolina,NC,Private,4 Year,10120.0,30880,41000,30880,41000,9,12,245,55,0,30,349,28,52,604,716,1035,1035,1035,1035,1035,1035,1035,1035,1035,1035,1035
384,535,535,2361,Belmont Abbey College,Belmont,NC,-81.041315,35.260651,46700,82900,49.0,7,North Carolina,NC,Private,4 Year,10355.0,18500,28855,18500,28855,4,15,391,23,0,21,438,5,470,631,890,1560,1560,1560,1560,1560,1560,1560,1560,1560,1560,1560
385,536,536,2369,Campbell University,Buies Creek,NC,-78.738238,35.409149,46300,82400,56.0,8,North Carolina,NC,Private,4 Year,11430.0,32500,43930,32500,43930,40,193,946,343,9,121,1643,112,585,3752,3225,6101,6101,6101,6101,6101,6101,6101,6101,6101,6101,6101
386,537,537,2373,Catawba College,Salisbury,NC,-80.482751,35.691443,42500,78100,58.0,11,North Carolina,NC,Private,4 Year,10488.0,30520,41008,30520,41008,12,15,265,48,0,34,368,28,3,895,691,1300,1300,1300,1300,1300,1300,1300,1300,1300,1300,1300
387,538,538,2382,Davidson College,Davidson,NC,-80.843979,35.499767,57300,106900,50.0,28,North Carolina,NC,Private,4 Year,14372.0,51447,65819,51447,65819,11,102,114,117,0,104,415,71,31,1220,895,1770,1770,1770,1770,1770,1770,1770,1770,1770,1770,1770
388,539,539,2383,Duke University,Durham,NC,-78.937624,36.001135,71100,132100,50.0,26,North Carolina,NC,Private,4 Year,15178.0,55695,70873,55695,70873,66,2268,1156,797,20,2899,4676,369,494,7787,7891,15856,15856,15856,15856,15856,15856,15856,15856,15856,15856,15856
389,540,540,2385,East Carolina University,Greenville,NC,-77.368291,35.607186,48400,85400,55.0,11,North Carolina,NC,Public,4 Year,9606.0,7188,16794,23465,33071,181,782,4359,1498,26,252,7634,788,567,19058,16451,27511,27511,27511,27511,27511,27511,27511,27511,27511,27511,27511
390,541,541,2388,Elon University,Elon,NC,-79.50344,36.104148,53600,93700,43.0,7,North Carolina,NC,Private,4 Year,12230.0,35319,47549,35319,47549,29,146,391,316,3,107,995,110,92,5289,3856,6483,6483,6483,6483,6483,6483,6483,6483,6483,6483,6483
391,542,542,2400,High Point University,High Point,NC,-79.994675,35.972035,48600,84300,50.0,8,North Carolina,NC,Private,4 Year,14130.0,35118,49248,35118,49248,21,61,246,173,0,65,668,167,151,3515,2647,4399,4399,4399,4399,4399,4399,4399,4399,4399,4399,4399
392,544,544,2407,Lenoir-Rhyne University,Hickory,NC,-81.327598,35.739968,46400,86300,54.0,7,North Carolina,NC,Private,4 Year,12510.0,36400,48910,36400,48910,12,30,266,60,1,37,421,52,79,1513,1281,2050,2050,2050,2050,2050,2050,2050,2050,2050,2050,2050
393,545,545,2416,Methodist University,Fayetteville,NC,-78.874426,35.135058,45800,80500,58.0,9,North Carolina,NC,Private,4 Year,12890.0,33846,46736,33846,46736,20,37,454,186,5,154,785,83,280,1242,1139,2461,2461,2461,2461,2461,2461,2461,2461,2461,2461,2461
394,547,547,2427,University of North Carolina at Chapel Hill,Chapel Hill,NC,-79.050969,35.911769,55000,100800,49.0,19,North Carolina,NC,Public,4 Year,11190.0,8987,20177,35170,46360,133,2410,2304,1895,70,1602,8138,1326,846,18549,16481,29135,29135,29135,29135,29135,29135,29135,29135,29135,29135,29135
